Name,Line 1,Line 2,Town,County,Postcode,lat,lng
Costa Coffee,Torbay Road,,Torquay,Torbay,TQ2 5FB,50.46335029999999,-3.5338307
Costa Coffee,Riverside Retail Park,Ffordd Tirwaun,Aberdare,Rhondda Cynon Taff,CF44 0AH,51.7019444,-3.42
Costa Coffee,George Street,,Aberdeen,Aberdeen City,AB25 1HZ,57.149203,-2.099636
Costa Coffee,2-3 The Courtyard The,Cults,Aberdeen,Aberdeen City,AB15 9SD,57.1180719,-2.1744474
Costa Coffee,Rousay Drive,,Aberdeen,Aberdeen City,AB15 6XS,57.1506037,-2.1716217
Costa Coffee,Guild Street,,Aberdeen,Aberdeen City,AB11 5PS,57.1439999,-2.0977422
Costa Coffee,Aberdeen AB10 1BL,,Aberdeen,Aberdeen City,AB10 1BL,57.1483892,-2.0983006
Costa Coffee,Next,Berryden Road,Aberdeen,Aberdeen City,AB25 3SG,57.15627180000001,-2.1132767
Costa Coffee,Westhill Shopping Centre,Old Skene Road,Aberdeen,Westhill,AB32 6RL,57.1533326,-2.2770052
Costa Coffee,11 High Street,,Abergavenny,Monmouthshire,NP7 5RY,51.8225793,-3.0190537
Costa Coffee,5 Great Darkgate Street,,Aberystwyth,Ceredigion,SY23 1DE,52.415026,-4.083892
Costa Coffee,Next,Llanbadarn Fawr,Aberystwyth,Ceredigion,SY23 3TL,52.406065,-4.066136999999999
Costa Coffee,39 Bury Street,,Abingdon,Oxfordshire,OX14 3QY,51.670479,-1.281804
Costa Coffee,5 The Old Gaol,,Abingdon,Oxfordshire,OX14 3HE,51.6691601,-1.280355
Costa Coffee,Cornhill,,Accrington,Lancashire,BB5 1EY,53.7542343,-2.3644778
Costa Coffee,1088 Warwick Road,Acocks Green,Birmingham,West Midlands,B27 6BH,52.4465582,-1.8225696
Costa Coffee,114-116 High Street,,London,Greater London,W3 6QX,51.5069387,-0.2693554
Costa Coffee,52-54 Graham Street,,Airdrie,North Lanarkshire,ML6 6BU,55.8660349,-3.9791315
Costa Coffee,Albert Bygrave Retail Park,,St Albans,Hertfordshire,AL2 1DL,51.7305657,-0.3078973
Costa Coffee,18 & 19 The Colonnades Albert Dock,,Liverpool,Merseyside,L3 4AG,53.4001431,-2.9939858
Costa Coffee,24 London Road,,Alderley Edge,Cheshire East,SK9 7DZ,53.3015785,-2.2363346
Costa Coffee,49-51 Union Street,,Aldershot,Hampshire,GU11 1EP,51.2495553,-0.7642578
Costa Coffee,26/27,Anchor Parade,Aldridge,Walsall,WS9 8QP,52.6045723,-1.9178768
Costa Coffee,69 - 71 High Street,,Alfreton,Derbyshire,DE55 7DP,53.0976338,-1.3875463
Costa Coffee,Allerton Road,,Liverpool,Merseyside,L18 2DD,53.385164,-2.9068946
Costa Coffee,48-50 High Street,,Alloa,Clackmannanshire,FK10 1JF,56.1156697,-3.7921294
Costa Coffee,69-71 Bondgate Within,,Alnwick,Northumberland,NE66 1HZ,55.4137542,-1.7069807
Costa Coffee,60 Sandbach Road South,Alsager,Stoke-on-Trent,Cheshire East,ST7 2LP,53.0957032,-2.3043229
Costa Coffee,23 High Street,,Alton,Hampshire,GU34 1AW,51.1490344,-0.9750266000000001
Costa Coffee,28 George Street,,Altrincham,Greater Manchester,WA14 1RJ,53.3880749,-2.3496042
Costa Coffee,35-37 Sycamore Road,,Amersham,Buckinghamshire,HP6 5EQ,51.67761729999999,-0.6067988
Costa Coffee,19 London Road West,,Amersham,Buckinghamshire,HP7 0HA,51.6656458,-0.6121038999999999
Costa Coffee,Mid Summer Place Solstice Park,Amesbury,Salisbury,Wiltshire,SP4 7SQ,51.1768047,-1.7585847
Costa Coffee,121-123 Dunstable Street,Ampthill,Bedford,Central Bedfordshire,MK45 2NH,52.031467,-0.493158
Costa Coffee,48 High Street,,Andover,Hampshire,SP10 1NF,51.20805559999999,-1.4788889
Costa Coffee,Bus Station,West Street,Andover,Hampshire,SP10 1QP,51.2085336,-1.4815945
Costa Coffee,Unit J,Thornhill,Southampton,,SO19 8NE,50.90548219999999,-1.3393575
Costa Coffee,35 Junction Road,,London,Greater London,N19 5QT,51.5645688,-0.1348269
Costa Coffee,11 Argyll Street,,London,Greater London,W1F 7TH,51.5148619,-0.1407134
Costa Coffee,59 Front Street,Arnold,Nottingham,Nottinghamshire,NG5 7EA,53.0026805,-1.1283087
Costa Coffee,356 Bowes Road,,London,Greater London,N11 1AN,51.616206,-0.1345239
Costa Coffee,Shripney Road,,Bognor Regis,West Sussex,PO22 9NF,50.7995816,-0.6664082
Costa Coffee,39B High Street,,Ascot,Windsor and Maidenhead,SL5 7HY,51.4108333,-0.6736111
Costa Coffee,House,Saint John Street,Market Place,Ashbourne,DE6 1GH,53.0172889,-1.7325944
Costa Coffee,33 Market Street,,Ashby-de-la-Zouch,Leicestershire,LE65 1AF,52.7470627,-1.472193
Costa Coffee,Unit 16c,Bank Street,Ashford,Kent,TN23 1YB,51.1488403,0.8702397
Costa Coffee,79a Church Road,,Ashford,Surrey,TW15 2PE,51.4323455,-0.4608893
Costa Coffee,Station Road,,Ashford,Kent,TN23 1EZ,51.1433539,0.8748532
Costa Coffee,Ashford Retail Park,Barrey Road,Willesborough,Ashford,TN24 0SG,51.1302879,0.9057525
Costa Coffee,Park Farm Roundabout,Moatfield Meadow,Kingsnorth,Ashford,TN23 3LU,51.1230911,0.8653306
Costa Coffee,29 Ladysmith Centre,Ladysmith Centre,Ashton,Greater Manchester,OL6 7JJ,53.4888343,-2.0958879
Costa Coffee,Unit 3 The Gerard Centre,Gerard Street,Ashton-in-Makerfield,Wigan,WN4 9AN,53.4860664,-2.6352063
Costa Coffee,120 Askew Road,,London,Greater London,W12 9BL,51.5025528,-0.243136
Costa Coffee,58 Long Street,,Atherstone,Warwickshire,CV9 1AU,52.57793119999999,-1.548305
Costa Coffee,Grampian Road,,Aviemore,Highland Council,PH22 1RH,57.1925999,-3.8299054
Costa Coffee,1 Victoria Place,,Axminster,Devon,EX13 5NQ,50.7824848,-2.9981004
Costa Coffee,17-17a High Street,,Aylesbury,Buckinghamshire,HP20 1SH,51.8171669,-0.8120678
Costa Coffee,Tring Road,,Aylesbury,Buckinghamshire,HP20 1PQ,51.8153237,-0.7902743
Costa Coffee,Cambridge Close,,Aylesbury,Buckinghamshire,HP20 1DG,51.8190698,-0.8101923999999999
Costa Coffee,Kyle Street,,Ayr,South Ayrshire Council,KA7 1TU,55.459754,-4.6262154
Costa Coffee,Heathfield Retail Park,Liberator Drive,Ayr,South Ayrshire Council,KA8 9BF,55.4789882,-4.5950522
Costa Coffee,2 Glasgow Road,Baillieston,Glasgow,Glasgow City,G69 6JX,55.850291,-4.114465
Costa Coffee,124 Baker Street,,London,Greater London,W1U 6TY,51.5213976,-0.1569939
Costa Coffee,15 King Street,,Bakewell,Derbyshire,DE45 1DZ,53.2127437,-1.6763189
Costa Coffee,58 High Street,,Baldock,Hertfordshire,SG7 6BN,51.9858302,-0.1866301
Costa Coffee,unit 2 Station Road,Balsall Common,Coventry,West Midlands,CV7 7FE,52.3921435,-1.6492603
Costa Coffee,Castle Street,,Banbury,Oxfordshire,OX16 5UW,52.0631174,-1.3337831
Costa Coffee,Unit 2A Banbury Cross Retail Park,,Banbury,Oxfordshire,OX16 1LX,52.0733483,-1.3431428
Costa Coffee,Unit 2 Gateway Shopping Park,Acorn Way,Banbury,Oxfordshire,OX16 3AB,52.07666649999999,-1.3184942
Costa Coffee,284 High Street,,Bangor,Gwynedd,LL57 1UL,53.2277778,-4.1238889
Costa Coffee,Caernarfon Road,,Bangor,Gwynedd,LL57 4SU,53.2091371,-4.150163399999999
Costa Coffee,61 High Street,,Banstead,Surrey,SM7 2NL,51.3227081,-0.201561
Costa Coffee,King Edwards Road,,Birmingham,West Midlands,B1 2AA,52.479125,-1.9148397
Costa Coffee,Highbridge Road,,Barking,Greater London,IG11 7BS,51.5362109,0.07074799999999999
Costa Coffee,62-64 Station Parade,,Barking,Greater London,IG11 8EA,51.5392638,0.08158839999999999
Costa Coffee,113 High Street,Barkingside,Ilford,Greater London,IG6 2AH,51.59158559999999,0.0830576
Costa Coffee,4C Tallys End,Barlborough,Chesterfield,Derbyshire,S43 4WP,53.28363909999999,-1.2922561
Costa Coffee,26 Horse Market,Darlington,Barnard Castle,County Durham,DL12 8LZ,54.544058,-1.924543
Costa Coffee,10-18 Queen Street,,Barnsley,South Yorkshire,S70 1SJ,53.5525817,-1.4804226
Costa Coffee,75 High Street,,Barnstaple,Devon,EX31 1HX,51.0806684,-4.0607993
Costa Coffee,Station Road,Sticklepath,Barnstaple,Devon,EX31 2AU,51.0747222,-4.0622222
Costa Coffee,Roundswell Business Park,John Penrose Road,Roundswell,Barnstaple,EX31 3RY,51.0652659,-4.0843593
Costa Coffee,162 Dalton Road,,Barrow-in-Furness,Cumbria,LA14 1PU,54.113687,-3.2253027
Costa Coffee,Unit 8A Hindpool Retail Park,Hindpool Road,Barrow-in-Furness,Cumbria,LA14 2PD,54.11387320000001,-3.2340079
Costa Coffee,88 - 90 Holton Road,,Barry,Vale of Glamorgan,CF63 4HJ,51.4056381,-3.2685452
Costa Coffee,East Pavilion,Town Square,Basildon,Essex,SS14 1BA,51.5701514,0.4580201
Costa Coffee,Unit 8 - Basildon Mayflower Retail Park,,Basildon,Essex,SS14 3HZ,51.59103229999999,0.4805290999999999
Costa Coffee,Unit 1A,,Basildon,Essex,SS14 3AF,51.5815876,0.4444099
Costa Coffee,Potters Walk,,Basingstoke,Hampshire,RG21 7BF,51.2648872,-1.0859114
Costa Coffee,Festival Place,,Basingstoke,Hampshire,RG21 7BE,51.2654788,-1.0871171
Costa Coffee,Castle Square,,Basingstoke,Hampshire,RG21 7FH,51.267376,-1.0877564
Costa Coffee,Basingstoke Leisure Park,Euskerchin Way,Basingstoke,Hampshire,RG22 6PG,51.2642877,-1.1185214
Costa Coffee,44 Stall Street,,Bath,Bath and North East Somerset,BA1 1QH,51.3814472,-2.3604972
Costa Coffee,17 Southgate Place,,Bath,Bath and North East Somerset,BA1 1AP,51.37826519999999,-2.3576644
Costa Coffee,Lower Bristol Road,,Bath,Bath and North East Somerset,BA2 1EP,51.3807189,-2.3905361
Costa Coffee,49 Southgate Street,,Bath,Bath and North East Somerset,BA1 1TG,51.3791974,-2.3598135
Costa Coffee,6 George Place,,Bathgate,West Lothian,EH48 1NP,55.9006258,-3.641017699999999
Costa Coffee,Blackburn Road,,Bathgate,West Lothian,EH48 2ES,55.8935673,-3.618941
Costa Coffee,11 High Street,,Battle,East Sussex,TN33 0AE,50.91586179999999,0.4854238
Costa Coffee,Brighton Street,,Hull,Kingston upon Hull,HU3 4HA,53.7300737,-0.3744128
Costa Coffee,143 Ashford Road,Bearsted,Maidstone,Kent,ME14 4ND,51.2675163,0.5734065
Costa Coffee,579 Bearwood Road,Bearwood,Birmingham,Smethwick,B66 4BH,52.4746639,-1.9690389
Costa Coffee,George Westwood Way,,Beccles,Suffolk,NR34 9QH,52.4591126,1.5656549
Costa Coffee,194-200 High Street,New Beckenham,Beckenham,Greater London,BR3 1EN,51.4068718,-0.028212
Costa Coffee,Elmers End,,London,Greater London,BR3 4AA,51.3965208,-0.0501312
Costa Coffee,Armada Way,,London,Greater London,E6 7ER,51.5170092,0.0804368
Costa Coffee,23 Market Place,,Bedale,North Yorkshire,DL8 1ED,54.2888059,-1.5920721
Costa Coffee,Interchange Retail Park,Race Meadows Way,Kempston,Bedford,MK42 7AZ,52.10915749999999,-0.4837017
Costa Coffee,33 Midland Road,,Bedford,,MK40 1PW,52.1366212,-0.4703891000000001
Costa Coffee,20 Silver Street,,Bedford,,MK40 1SU,52.1367632,-0.4676383
Costa Coffee,Rope Walk,,Bedford,,MK42 0XE,52.1305556,-0.4602778
Costa Coffee,17-21 Jansel Square,Bedgrove,Aylesbury,Buckinghamshire,HP21 7ET,51.806583,-0.7842524
Costa Coffee,Unit 3,,Bedworth,Warwickshire,CV12 8SX,52.4806853,-1.4732341
Costa Coffee,Unit 9 The Square,Beeston,Nottingham,Nottinghamshire,NG9 2JG,52.9264254,-1.2156998
Costa Coffee,17 King Street,,Belper,Derbyshire,DE56 1PW,53.0232829,-1.4835519
Costa Coffee,Bridge Retail Park,,Wolverhampton,West Midlands,WV11 1BP,52.59746130000001,-2.0879702
Costa Coffee,15-16 Berkeley Precinct,Ecclesall Road,Sharrow,Sheffield,S11 8PN,53.3690147,-1.494133
Costa Coffee,32 Marygate,,Berwick-upon-Tweed,Northumberland,TD15 1BN,55.7697868,-2.0034463
Costa Coffee,64-66 Bethnal Green Road,,London,Greater London,E1 6GQ,51.5242162,-0.0726604
Costa Coffee,16 Toll Gavel,,Beverley,East Riding of Yorkshire,HU17 9AJ,53.8419298,-0.4309124
Costa Coffee,Flemingate,Chantry Lane,Beverley,East Riding of Yorkshire,HU17 0PW,53.83973530000001,-0.4180716
Costa Coffee,4 Ravenside Leisure Park,,Bexhill-on-Sea,East Sussex,TN40 2JS,50.8435076,0.5006035999999999
Costa Coffee,Broadway,,Bexleyheath,Greater London,DA6 7JN,51.4558534,0.1457861
Costa Coffee,Kingsmere Retail Park,,Bicester,Oxfordshire,OX26 1ES,51.8926007,-1.1630011
Costa Coffee,86 High Street,,Bideford,Devon,EX39 2HL,51.0179864,-4.2048324
Costa Coffee,London Road Trading Estate,London Road,Biggleswade,Central Bedfordshire,SG18 8PS,52.074346,-0.2466938
Costa Coffee,76 High Street,,Billericay,Essex,CM12 9BT,51.6251068,0.4175518
Costa Coffee,Leeholme Road,Stockton-on-Tees,Billingham,Stockton-on-Tees,TS23 3TA,54.6074533,-1.2798293
Costa Coffee,112-114 Queensway,Stockton-on-Tees,Billingham,Stockton-on-Tees,TS23 2NU,54.6070848,-1.2918652
Costa Coffee,2 Eaton Place,Bingham,Nottingham,Nottinghamshire,NG13 8BD,52.9523746,-0.9531136999999998
Costa Coffee,7a-8b Five Rise Shopping Centre,,Bingley,West Yorkshire,BD16 1GL,53.8472239,-1.8364716
Costa Coffee,2 Saint John Street,Grange Precinct,Pavement,Birkenhead,CH41 2YB,53.3898959,-3.0248847
Costa Coffee,T1 Birmingham Airport,,Birmingham,West Midlands,B26 3QJ,52.4521307,-1.7334055
Costa Coffee,1 Colmore Row,,Birmingham,West Midlands,B3 2BJ,52.4824515,-1.8981264
Costa Coffee,Unit 6 Scots Corner,High Street,King's Heath,Birmingham,B14 7DG,52.43377659999999,-1.8927186
Costa Coffee,20 Fort Parkway,,Birmingham,West Midlands,B24 9FP,52.5091667,-1.8236111
Costa Coffee,20 Fort Parkway,,Birmingham,West Midlands,B24 9FP,52.5091667,-1.8236111
Costa Coffee,T1 Birmingham Airport,,Birmingham,West Midlands,B26 3QJ,52.4521307,-1.7334055
Costa Coffee,10-11 Navigation Street,,Birmingham,West Midlands,B2 4BS,52.47866,-1.9001091
Costa Coffee,Next - Unit MSU3 - Level 3 - Upper East Centre,,Birmingham,West Midlands,B5 4BA,52.478596,-1.8960052
Costa Coffee,2 Walsall Road,Perry Barr,Birmingham,West Midlands,B42 1AA,52.5180759,-1.90198
Costa Coffee,Unit SU20A - Resorts World,,Birmingham,West Midlands,B40 1PU,52.4470904,-1.7177015
Costa Coffee,Harborne Lane,Selly Oak,Birmingham,West Midlands,B29 6SN,52.4442203,-1.9389112
Costa Coffee,32,Watson Road,Nechells,Birmingham,B7 5SA,52.5046205,-1.8563161
Costa Coffee,Unit F Tindale Crescent,Tindale Crescent,Saint Helen Auckland,Bishop Auckland,DL14 9SX,54.6404029,-1.6952181
Costa Coffee,Church Road,Bishops Cleeve,Cheltenham,Gloucestershire,GL52 8LR,51.9465964,-2.0621765
Costa Coffee,31 Potter Street,,Bishop's Stortford,Hertfordshire,CM23 3UH,51.8700473,0.1598908
Costa Coffee,Bishops Park Centre,Lancaster Way,Bishop's Stortford,Hertfordshire,CM23 4DD,51.87465359999999,0.1353764
Costa Coffee,20 High Street,Bishop's Waltham,Southampton,Hampshire,SO32 1AA,50.95415389999999,-1.2125442
Costa Coffee,Unit 11-11a The Triangle Shopping Centre,Kirkintilloch Road,Bishopbriggs,Glasgow,G64 2TR,55.9051422,-4.2240155
Costa Coffee,Cobden Court Unit 49,Ewood,Blackburn,Blackburn with Darwen,BB1 7JG,53.7484923,-2.4820194
Costa Coffee,Townsmoor Retail Park,,Blackburn,Blackburn with Darwen,BB2 3PX,53.74194439999999,-2.4819444
Costa Coffee,19 Blackfen Road,Blackfen,Sidcup,Greater London,DA15 9LU,51.4503902,0.1034904
Costa Coffee,41 Tranquil Vale,,London,Greater London,SE3 0BU,51.4665161,0.0075822
Costa Coffee,44-46 Church Street,,Blackpool,,FY1 1HP,53.8175,-3.0536111
Costa Coffee,Unit N12 Victoria Street,,Blackpool,,FY1 4HU,53.8153869,-3.0536982
Costa Coffee,7 Salisbury Street,,Blandford Forum,Dorset,DT11 7AU,50.85638429999999,-2.1655671
Costa Coffee,Unit 1A Blaydon Shopping Centre,,Blaydon-on-Tyne,Tyne and Wear,NE21 5BT,54.9650814,-1.7126766
Costa Coffee,1B Watling Street,Bletchley,Milton Keynes,,MK1 1BN,52.003434,-0.7252155
Costa Coffee,West Village WVU04 Bluewater Park,Dartford,Greenhithe,Kent,DA9 9SE,51.4397959,0.2691275
Costa Coffee,Unit 1 - Cornish Gateway Services Victoria,,Saint Austell,Cornwall,PL26 8UF,50.4255319,-4.8173773
Costa Coffee,35 Fore Street,,Bodmin,Cornwall,PL31 2JA,50.4713364,-4.7207222
Costa Coffee,33 London Road,,Bognor Regis,West Sussex,PO21 1PQ,50.7845114,-0.6733988
Costa Coffee,Shripney Road,,Bognor Regis,West Sussex,PO22 9ND,50.7995864,-0.6664076
Costa Coffee,Trinity Street,,Bolton,Greater Manchester,BL3 6DH,53.57387900000001,-2.4317696
Costa Coffee,Unit 19D The Linkway,Horwich,Bolton,Greater Manchester,BL6 6JA,53.5843706,-2.5367707
Costa Coffee,Ground Floor,,Bolton,Greater Manchester,BL1 2AL,53.5811404,-2.4296499
Costa Coffee,221 Stanley Road,Liverpool,Bootle,Merseyside,L20 3DY,53.44959619999999,-2.990256
Costa Coffee,Borehamwood Shopping Park,Theobald Street,Borehamwood,Hertfordshire,WD6 4PR,51.6566998,-0.2785689
Costa Coffee,Shenley Road,,Borehamwood,Hertfordshire,WD6 1JG,51.6558333,-0.2686111
Costa Coffee,134-138 Borough High Street,,London,Greater London,SE1 1LB,51.5025361,-0.092375
Costa Coffee,43 High Street,Borough Green,Sevenoaks,Kent,TN15 8BX,51.2925596,0.3063718
Costa Coffee,1144-1148 Christchurch Road,,Bournemouth,Dorset,BH7 6DY,50.7351333,-1.8161122
Costa Coffee,Unit 2 pescod square,,Boston,Lincolnshire,PE21 6QU,52.9793724,-0.021521
Costa Coffee,10 North Street,,Bourne,Lincolnshire,PE10 9AB,52.768543,-0.377128
Costa Coffee,67 The Parade,Wooburn Green,Bourne End,Buckinghamshire,SL8 5SB,51.579514,-0.713414
Costa Coffee,Caird Avenue,,New Milton,Hampshire,BH25 6BP,50.75007170000001,-1.6453783
Costa Coffee,67 Old Christchurch Road,,Bournemouth,Dorset,BH1 1EW,50.7213953,-1.8765431
Costa Coffee,48-54,Commercial Road,Bournemouth,Dorset,BH2 5LR,50.7202743,-1.8833438
Costa Coffee,Mallard Road Retail Park,Mallard Road,Bournemouth,Dorset,BH8 9PE,50.7492463,-1.8473145
Costa Coffee,556 Mile End Road,,London,Greater London,E3 4PL,51.5246061,-0.0353278
Costa Coffee,1 Royal Square,Bowness-on-Windermere,Windermere,Cumbria,LA23 3DB,54.364332,-2.920104
Costa Coffee,31 Market Place,,Brackley,Northamptonshire,NN13 7AB,52.027341,-1.148526
Costa Coffee,Tesco,Whitton Road,Winkfield Row,Bracknell,RG12 9TZ,51.4083024,-0.7254893
Costa Coffee,North Superstore,County Lane,Warfield,Bracknell,RG42 3JP,51.4268646,-0.73174
Costa Coffee,The Lexicon Next 22 The Avenue,,Bracknell,Bracknell Forest,RG12 1BD,51.41752719999999,-0.7495925999999999
Costa Coffee,22 Braccan Walk,,Bracknell,Bracknell Forest,RG12 1BE,51.41646420000001,-0.7495824999999999
Costa Coffee,18 Petergate Mall The Broadway Centre,,Bradford,West Yorkshire,BD1 1US,53.7943179,-1.7486246
Costa Coffee,18 Petergate Mall The Broadway Centre,,Bradford,West Yorkshire,BD1 1US,53.7943179,-1.7486246
Costa Coffee,Unit 19a - Bradford Retail Park,,Bradford,West Yorkshire,BD1 4RN,53.8011267,-1.7538129
Costa Coffee,64-66 High Street,,Braintree,Essex,CM7 1JP,51.8783768,0.5510326999999999
Costa Coffee,Marks Farm,Coggeshall Road,Braintree,Essex,CM77 8AA,51.8806057,0.5827139
Costa Coffee,Notley Green,Great Notley,Braintree,Essex,CM77 7WW,51.8578257,0.5219389
Costa Coffee,Unit H3 Charter Way,Chapel Hill,Braintree,Essex,CM77 8YH,51.869785,0.570206
Costa Coffee,10-12 Bramhall Lane South,Bramhall,Stockport,Greater Manchester,SK7 1AF,53.3575878,-2.1655675
Costa Coffee,Unit 8 Bramley Shopping Centre,,Leeds,Bramley,LS13 2ET,53.8121157,-1.6270549
Costa Coffee,9 High Street,,Brecon,Powys,LD3 7AL,51.9476433,-3.3910558
Costa Coffee,Prince Charles Drive,,London,Greater London,NW4 3FB,51.5768985,-0.2227917
Costa Coffee,Unit 8 Brent Cross Shopping Park,Tiliing Road,London,Greater London,NW2 1LS,51.5719417,-0.2234202
Costa Coffee,Unit 8 Brent Cross Shopping Park,Tiliing Road,London,Greater London,NW2 1LS,51.5719417,-0.2234202
Costa Coffee,Tesco Brent Cross,Tilling Road,London,Greater London,NW2 1LZ,51.5744273,-0.2152349
Costa Coffee,73 High Street,,Brentwood,Essex,CM14 4RW,51.6202412,0.3015222
Costa Coffee,Derwen,,Bridgend,Bridgend County Borough,CF32 9SU,51.5321704,-3.5747489
Costa Coffee,Waterton Road,,Bridgend,Bridgend County Borough,CF31 3XY,51.4943089,-3.5590778
Costa Coffee,1 Postern Gate,,Bridgnorth,Shropshire,WV16 4BX,52.5345823,-2.419443
Costa Coffee,12 Cornhill,,Bridgwater,Somerset,TA6 3BU,51.12833329999999,-3.0033333
Costa Coffee,45 King Street,,Bridlington,East Riding of Yorkshire,YO15 2DN,54.0821999,-0.1903312
Costa Coffee,35 West Street,,Bridport,Dorset,DT6 3QW,50.7341141,-2.760208
Costa Coffee,9 Wrawby Street,,Brigg,North Lincolnshire,DN20 8JH,53.5522466,-0.4907718
Costa Coffee,65 Commercial Street,,Brighouse,West Yorkshire,HD6 1AF,53.7019293,-1.7822844
Costa Coffee,33 Bond Street,,Brighton,Brighton and Hove,BN1 1RD,50.823544,-0.13997
Costa Coffee,54 Churchill Square,,Brighton,Brighton and Hove,BN1 2TE,50.8223079,-0.1462997
Costa Coffee,2 Dyke Road,,Brighton,Brighton and Hove,BN1 3FE,50.8239348,-0.1443103
Costa Coffee,17 London Road,,Brighton,Brighton and Hove,BN1 4JA,50.830537,-0.1362379
Costa Coffee,193 Western Road,,Brighton,Brighton and Hove,BN1 2BA,50.8239898,-0.146175
Costa Coffee,Station Road,,Bristol,South Gloucestershire,BS34 7JL,51.5058212,-2.5588808
Costa Coffee,Unit C - Avonmeads Retail Park,,Bristol,Bristol City,BS2 0SP,51.4481548,-2.5612722
Costa Coffee,33 Broadmead,Broadmead,Bristol,Bristol City,BS1 3EU,51.4577778,-2.5880556
Costa Coffee,Unit 65 - Upper Level The Mall,Patchway,Bristol,South Gloucestershire,BS34 5UR,51.52581199999999,-2.597362
Costa Coffee,Cribbs Causeway Retail Park,Lysander Road,Patchway,Bristol,BS34 5UL,51.5251108,-2.6018608
Costa Coffee,Cathedral Walk,Millennium Promenade,Bristol,Bristol City,BS1 5LW,51.4497722,-2.6024779
Costa Coffee,Hayes Way,,Bristol,South Gloucestershire,BS34 5GN,51.52644170000001,-2.5721478
Costa Coffee,1-27 The Horsefair,Broadmead,Bristol,Bristol City,BS1 3BB,51.4583816,-2.5911286
Costa Coffee,Lime Trees Road,,Bristol,Bristol City,BS6 7XW,51.4858014,-2.5956194
Costa Coffee,30 College Green,,Bristol,Bristol City,BS1 5TB,51.4528147,-2.6002265
Costa Coffee,Queens Road,,Bristol,Bristol City,BS8 1QE,51.4557496,-2.6048167
Costa Coffee,Unit 12 Imperial Park,Wills Way,Bristol,Bristol City,BS13 7TJ,51.4153171,-2.6000512
Costa Coffee,53 Union Street,,Bristol,Bristol City,BS1 2DU,51.4575963,-2.5920068
Costa Coffee,24-26 Fore Street,,Brixham,Torbay,TQ5 8DS,50.3946609,-3.5144672
Costa Coffee,458-460,Brixton Road,London,Greater London,SW9 8EA,51.4630066,-0.1152276
Costa Coffee,Wallington Way,Broadcut Roundabout,Fareham,Hampshire,PO16 8SU,50.857701,-1.1734281
Costa Coffee,2 Albion Street,,Broadstairs,Kent,CT10 1LT,51.3583589,1.441908
Costa Coffee,14 Dunyeats Road,,Broadstone,Dorset,BH18 8AG,50.7617503,-1.9955427
Costa Coffee,9-11 Broadwater Street West,Broadwater,Worthing,West Sussex,BN14 9BT,50.8282122,-0.3745669
Costa Coffee,Bromborough,Bromborough,Birkenhead,Wirral,CH62 3PN,53.3397717,-2.9791116
Costa Coffee,33-34 Market Square,,Bromley,Greater London,BR1 1NF,51.4056443,0.0152269
Costa Coffee,84-86 High Street,,Bromsgrove,Worcestershire,B61 8EX,52.3351364,-2.060189
Costa Coffee,144 Shepherds Bush Road,Brook Green,London,Greater London,W6 7PB,51.49803499999999,-0.2226659
Costa Coffee,1 Brookgate,,Cambridge,Cambridgeshire,CB1 2FF,52.19260689999999,0.1338137
Costa Coffee,Fen Street,Broughton,Milton Keynes,,MK10 7NF,52.0466323,-0.6783005000000001
Costa Coffee,1 Crookes Road,Broomhill,Sheffield,South Yorkshire,S10 5BA,53.3777397,-1.5011414
Costa Coffee,210 Brook Street,Broughty Ferry,Dundee,Dundee City Council,DD5 2AH,56.46701669999999,-2.8746056
Costa Coffee,51 High Street,Brownhills,Walsall,West Midlands,WS8 6HH,52.6470642,-1.9327871
Costa Coffee,2 The Precinct,High Road,Broxbourne,Hertfordshire,EN10 7HY,51.7475678,-0.0186923
Costa Coffee,48 Queen's Road,,Buckhurst Hill,Essex,IG9 5BY,51.625238,0.044141
Costa Coffee,11 Market Hill,,Buckingham,Buckinghamshire,MK18 1JX,52.0008591,-0.9869260999999999
Costa Coffee,Unit 1 Lancaster Way,Buckshaw Village,Chorley,Lancashire,PR7 7LJ,53.6759937,-2.6546842
Costa Coffee,14 Belle Vue,,Bude,Cornwall,EX23 8JL,50.83027269999999,-4.5449381
Costa Coffee,62 Main Street,Bulwell,Nottingham,,NG6 8EW,53.0017755,-1.1961357
Costa Coffee,Burnage Lane,,Manchester,Greater Manchester,M19 1TF,53.4203671,-2.2103165
Costa Coffee,82-84 High Street,Burnham,Slough,Buckinghamshire,SL1 7JT,51.5352735,-0.6586194
Costa Coffee,Centenary Way,,Burnley,Lancashire,BB11 2HE,53.7859578,-2.2408825
Costa Coffee,146-148 Burnt Oak Broadway,,London,Greater London,HA8 0AX,51.60165,-0.2681944
Costa Coffee,Cannock Road,Chase Terrace,Burntwood,Staffordshire,WS7 1JS,52.6816921,-1.935257
Costa Coffee,17,Orchard Street,Burton-on-Trent,Staffordshire,DE14 3TN,52.8010776,-1.6329324
Costa Coffee,27 Swan Walk,,Burton-on-Trent,Staffordshire,DE14 1DD,52.8030876,-1.631582
Costa Coffee,Burton upon Trent,Burton upon Trent,Burton-on-Trent,Staffordshire,DE14 3RJ,52.7969295,-1.6343119
Costa Coffee,Woodfields Retail Park,Peel Way,Bury,Greater Manchester,BL9 5BY,53.5969884,-2.2946271
Costa Coffee,31 Princess Parade Mill Gate Shopping Centre,,Bury,Greater Manchester,BL9 0QL,53.5919124,-2.2947464
Costa Coffee,1 Saint John's Gardens,,Bury,Greater Manchester,BL9 0JL,53.5952389,-2.290694
Costa Coffee,7 Auction Street,,Bury Saint Edmunds,Suffolk,IP33 3FA,52.24599300000001,0.710205
Costa Coffee,St Saviours Interchange,,Bury Saint Edmunds,Suffolk,IP32 7JS,52.2538822,0.7151791
Costa Coffee,52A Spring Gardens,,Buxton,Derbyshire,SK17 6BZ,53.2592344,-1.9105888
Costa Coffee,Unit A and B - Poolside Centre,,Caernarfon,Gwynedd,LL55 1AB,53.1401595,-4.2738664
Costa Coffee,Castle Street,,Caerphilly,Caerphilly County Borough,CF83 1JD,51.5762039,-3.2164761
Costa Coffee,7-9 Main Street,Perthshire,Callander,Stirling,FK17 8DU,56.24452489999999,-4.2174433
Costa Coffee,Phelps Parade,,Calne,Wiltshire,SN11 0HA,51.4396777,-2.004742
Costa Coffee,62 Park Street,,Camberley,Surrey,GU15 3PT,51.3369434,-0.7478924
Costa Coffee,23 Grace Reynolds Walk,,Camberley,Surrey,GU15 3SN,51.3381713,-0.7456632
Costa Coffee,London Road,York Town,Camberley,Surrey,GU15 3XS,51.3337914,-0.7708683
Costa Coffee,52-54 Denmark Hill,,London,Greater London,SE5 8RZ,51.4728862,-0.09330959999999999
Costa Coffee,Unit 11 Viking Way,Bar Hill,Cambridge,Cambridgeshire,CB23 8EL,52.2534137,0.0186129
Costa Coffee,Unit 15 Beehive Centre,,Cambridge,Cambridgeshire,CB1 3ER,52.2050643,0.1445063
Costa Coffee,2 Ermine Street,Caxton,Cambridge,Cambridgeshire,CB23 3AS,52.2286581,-0.1015714
Costa Coffee,Unit K5 Saint Andrew's Street,,Cambridge,Cambridgeshire,CB2 3HW,52.2040252,0.1216339
Costa Coffee,Cheddars Lane,,Cambridge,Cambridgeshire,CB5 8HE,52.2115334,0.1441983
Costa Coffee,Grafton Centre,,Cambridge,Cambridgeshire,CB1 1PS,52.2068113,0.1334091
Costa Coffee,181 Camden High Street,,London,Greater London,NW1 7JY,51.5386563,-0.1425577
Costa Coffee,"2, 35 Camden Road",,London,Greater London,NW1 9LR,51.5412472,-0.1392667
Costa Coffee,12 DS3,Cross Rail Link,London,Greater London,E14 5HX,51.5060009,-0.0177377
Costa Coffee,Cannock Shopping Centre 23 Market Hall Street,,Cannock,Staffordshire,WS11 1EB,52.6899904,-2.0299498
Costa Coffee,11 High Street,,Canterbury,Kent,CT1 2JE,51.2793481,1.0797884
Costa Coffee,Unit 22 - Marlowe Arcade,,Canterbury,Kent,CT1 2TJ,51.2777312,1.0803768
Costa Coffee,Marshwood,Marshwood,Canterbury,Canterbury,CT1 1DX,51.29061919999999,1.1003857
Costa Coffee,Knightswick Road,,Canvey Island,Essex,SS8 7AD,51.522385,0.5936246
Costa Coffee,Cardiff Bay Retail Park,Ferry Road,Cardiff,,CF11 0JR,51.4579544,-3.1867521
Costa Coffee,Unit E The Pod,Leckwith Road,Cardiff,,CF11 8EG,51.4716075,-3.2048173
Costa Coffee,Dering Road,Pontprennau,Cardiff,,CF23 8NL,51.5362447,-3.1292022
Costa Coffee,217 Cowbridge Road East,,Cardiff,,CF11 9AL,51.4813434,-3.1989651
Costa Coffee,Unit 7 Mermaid Quay,,Cardiff,,CF10 5BZ,51.4632031,-3.1658821
Costa Coffee,87 Queen Street,,Cardiff,,CF10 2BE,51.48248659999999,-3.1744919
Costa Coffee,2 St David's Way,Saint Davids Centre,Cardiff,,CF10 2DP,51.4803647,-3.1768848
Costa Coffee,Excelsior Estate,Excelsior Road,Cardiff,,CF14 3AT,51.4976806,-3.2062792
Costa Coffee,3 Cardinal Walk,,London,Greater London,SW1E 5JE,51.4970602,-0.1410891
Costa Coffee,Old Town Hall,Scotch Street,Carlisle,Cumbria,CA3 8PN,54.8948006,-2.9355978
Costa Coffee,13 Globe Lane,,Carlisle,Cumbria,CA3 8NX,54.8953903,-2.9343742
Costa Coffee,Unit 7 Saint Catherines Walk,,Carmarthen,Carmarthenshire,SA31 1GA,51.8588509,-4.3092454
Costa Coffee,31-33 High Street,,Carshalton,Greater London,SM5 3AX,51.3655693,-0.1606193
Costa Coffee,9 Burford Road,,Carterton,Oxfordshire,OX18 3AG,51.7598145,-1.5951167
Costa Coffee,Unit G10-11A Carr Wood Road,Glasshoughton,Castleford,West Yorkshire,WF10 4SB,53.7131074,-1.3382799
Costa Coffee,Unit 12 Church Walk,,Caterham,Surrey,CR3 6RT,51.2819954,-0.07753199999999999
Costa Coffee,14-15 Catford Broadway,,London,Greater London,SE6 4SP,51.4452034,-0.0217621
Costa Coffee,99-103 Rushey Green,,London,Greater London,SE6 4AF,51.4472702,-0.0180045
Costa Coffee,Unit 16,,Catterick Garrison,North Yorkshire,DL9 3BA,54.3762639,-1.7234
Costa Coffee,Church Street,Caversham,Reading,,RG4 8BA,51.4675215,-0.9744481999999999
Costa Coffee,20 Chalk Farm Road,,London,Greater London,NW1 8AG,51.5423737,-0.1465
Costa Coffee,Units 1 & 2 Fryern Arcade,Winchester Road,Chandler's Ford,Eastleigh,SO53 2DP,50.9880688,-1.3741996
Costa Coffee,1 Woodside Avenue,,Eastleigh,Hampshire,SO50 9NA,50.9725753,-1.3684179
Costa Coffee,32 Chapel Market,,London,Greater London,N1 9EN,51.5336632,-0.1080605
Costa Coffee,24 Fore Street,,Chard,Somerset,TA20 1PT,50.8727477,-2.9639826
Costa Coffee,255 High Street,,Chatham,Medway,ME4 4BQ,51.3814256,0.5277077
Costa Coffee,26 High Street,,Cheadle,Greater Manchester,SK8 1AL,53.3949806,-2.21465
Costa Coffee,Cheadle Road,Cheadle Hulme,Cheadle,Greater Manchester,SK8 5BB,53.37795699999999,-2.1898304
Costa Coffee,Stanley Green Retail Park,Earl Road,Cheadle Hulme,Cheadle,SK8 6PT,53.3575775,-2.2023642
Costa Coffee,15 High Street,Cheam,Sutton,Greater London,SM3 8RF,51.3580018,-0.2154075
Costa Coffee,138,Cheapside,London,Greater London,EC2V 6LB,51.51454099999999,-0.09579
Costa Coffee,Cheetham Hill Road,,Manchester,Greater Manchester,M8 5EL,53.5133597,-2.244701
Costa Coffee,A3B Chelmer Village RP,Chelmer Village Way,Chelmsford,Essex,CM2 6XE,51.7321022,0.4945531
Costa Coffee,The Meadows,,Chelmsford,Essex,CM2 6FE,51.7322371,0.475957
Costa Coffee,Victoria Road,,Chelmsford,Essex,CM1 1AN,51.7379498,0.4789664
Costa Coffee,Princes Road,,Chelmsford,Essex,CM2 9XW,51.7207649,0.4622959
Costa Coffee,76 High Street,,Chelmsford,Essex,CM1 1EJ,51.7330254,0.4739016
Costa Coffee,8 Chelmsford Clocktower,Westway,Chelmsford,Essex,CM1 3FJ,51.7230974,0.451002
Costa Coffee,A3B Chelmer Village RP,Chelmer Village Way,Chelmsford,Essex,CM2 6XE,51.7321022,0.4945531
Costa Coffee,6-8 High Street,,Chelmsford,Essex,CM1 1BE,51.7340983,0.4735882
Costa Coffee,GALLAGHER RETAIL PARK,Tewkesbury Road,Cheltenham,Gloucestershire,GL51 9RR,51.91802149999999,-2.1032401
Costa Coffee,Colletts Drive,,Cheltenham,Gloucestershire,GL51 8JQ,51.9059941,-2.0873866
Costa Coffee,24 Promenade,,Cheltenham,Gloucestershire,GL50 1LR,51.90056,-2.0752864
Costa Coffee,118-120 High Street,,Cheltenham,Gloucestershire,GL50 1EQ,51.8992282,-2.0726774
Costa Coffee,7 Beaufort Square,,Chepstow,Monmouthshire,NP16 5EP,51.6423503,-2.6745663
Costa Coffee,6 Cherry Hinton Road,,Cambridge,Cambridgeshire,CB1 7AA,52.1890758,0.136795
Costa Coffee,Sainsbury Center,Guildford Street,Chertsey,Surrey,KT16 9AG,51.3908747,-0.5035257
Costa Coffee,31 High Street,,Chesham,Buckinghamshire,HP5 1BW,51.70507449999999,-0.6124948
Costa Coffee,Unit F - The Coliseum Cheshire Oaks,,Ellesmere Port,Cheshire West and Chester,CH65 9LA,53.2642033,-2.8857295
Costa Coffee,34,Coliseum Way,Ellesmere Port,Cheshire West and Chester,CH65 9HD,53.263224,-2.886359
Costa Coffee,Brookfield Retail Park,Halfhide Lane,Cheshunt,Waltham Cross,EN8 0QE,51.7187208,-0.0388178
Costa Coffee,Chester Road,Bretton,Chester,Flintshire,CH4 0DP,53.1688889,-2.9711111
Costa Coffee,Deva Retail Centre,Greyhound Park Road,Chester,Cheshire West and Chester,CH1 4LU,53.1980586,-2.9111369
Costa Coffee,40-42 Frodsham Street,,Chester,Cheshire West and Chester,CH1 3JS,53.192671,-2.8879237
Costa Coffee,14 Watergate Street,,Chester,Cheshire West and Chester,CH1 2LA,53.1902643,-2.8922173
Costa Coffee,Grosvenor Shopping Centre,,Chester,Cheshire West and Chester,CH1 1EE,53.1895813,-2.88974
Costa Coffee,16 Packers Row,,Chesterfield,Derbyshire,S40 1RB,53.2350784,-1.4271401
Costa Coffee,872 Chesterfield Road,Woodseats,Sheffield,South Yorkshire,S8 0SH,53.3402979,-1.4795762
Costa Coffee,Lockoford Lane,,Chesterfield,Derbyshire,S41 7JB,53.2511665,-1.4262459
Costa Coffee,42 Front Street,,Chester-le-Street,County Durham,DH3 3BG,54.8574153,-1.5737643
Costa Coffee,West Street,,Chichester,West Sussex,PO19 1QF,50.83666669999999,-0.7797221999999999
Costa Coffee,69-70 East Street,,Chichester,West Sussex,PO19 1JX,50.8362213,-0.7768375
Costa Coffee,388 Finchley Road,,London,Greater London,NW2 2HR,51.5610738,-0.1969663
Costa Coffee,Chilwell Retail Park,Barton Lane,Beeston,Nottingham,NG9 6DS,52.9037819,-1.2448668
Costa Coffee,Chineham Shopping Centre,Chineham,Basingstoke,Hampshire,RG24 8BQ,51.28415159999999,-1.0594689
Costa Coffee,24 Old Church Road,,London,Greater London,E4 8DD,51.6179383,-0.0177045
Costa Coffee,24 High Street,,Chippenham,Wiltshire,SN15 3EU,51.458666,-2.115432
Costa Coffee,Bath Road,Corsham,Chippenham,Wiltshire,SN14 0UL,51.4471437,-2.1471512
Costa Coffee,Unit 4 Windmill Square Trinity Retail Park,,Chipping Norton,Oxfordshire,OX7 5EJ,51.9438596,-1.536023
Costa Coffee,53 High Street,,Chislehurst,Greater London,BR7 5AF,51.4181028,0.06748989999999999
Costa Coffee,246 Chiswick High Road,,London,Greater London,W4 1PD,51.4926724,-0.2583642
Costa Coffee,10 New Market Street,,Chorley,Lancashire,PR7 1DE,53.6533404,-2.6295682
Costa Coffee,40 Lower Road,Chorleywood,Rickmansworth,Hertfordshire,WD3 5LB,51.6534232,-0.5191395
Costa Coffee,Chorlton Place,Chorlton-cum-Hardy,Manchester,Greater Manchester,M21 9AQ,53.4427911,-2.2785078
Costa Coffee,28-29 Saxon Square,,Christchurch,Dorset,BH23 1QB,50.7349265,-1.7771357
Costa Coffee,Bailey Drive,,Christchurch,Dorset,BH23 2BN,50.7387654,-1.7907423
Costa Coffee,35 Cricklade Street,,Cirencester,Gloucestershire,GL7 1HY,51.716127,-1.967586
Costa Coffee,Stephenson Road West,,Clacton-on-Sea,Essex,CO15 4TL,51.8182634,1.167128
Costa Coffee,Old Road,,Clacton-on-Sea,Essex,CO15 1HX,51.7899769,1.1457456
Costa Coffee,50 Pier Avenue,,Clacton-on-Sea,Essex,CO15 1QN,51.7892906,1.1521622
Costa Coffee,16 Balham Hill,,London,Greater London,SW12 9DY,51.4526407,-0.1473448
Costa Coffee,8-10 Stamperland Crescent,Clarkston,Glasgow,East Renfrewshire Council,G76 7BG,55.7898355,-4.2767178
Costa Coffee,46 Saint Peter's Avenue,,Cleethorpes,North East Lincolnshire,DN35 8HL,53.5590047,-0.0313991
Costa Coffee,Victoria Road West,Cleveleys,Blackpool,Thornton,FY5 1AG,53.8772359,-3.0427277
Costa Coffee,205 Northdown Road,Cliftonville,Margate,Kent,CT9 2PQ,51.38742149999999,1.3996165
Costa Coffee,The Belvoir Shopping Centre,,Coalville,Leicestershire,LE67 3XA,52.7242065,-1.3734392
Costa Coffee,5 Faraday Retail Park,,Coatbridge,North Lanarkshire,ML5 3SQ,55.8570924,-4.0221621
Costa Coffee,30 High Street,,Cobham,Surrey,KT11 3EB,51.3276434,-0.4104937
Costa Coffee,74 Wolverhampton Road,Codsall,Wolverhampton,Staffordshire,WV8 1PE,52.6250115,-2.1897279
Costa Coffee,5 Culver Street West,,Colchester,Essex,CO1 1WF,51.8882905,0.8979459999999999
Costa Coffee,12 Lion Walk,,Colchester,Essex,CO1 1LX,51.88848429999999,0.9008012000000001
Costa Coffee,Greenstead Road,,Colchester,Essex,CO1 2TE,51.8851291,0.9304114
Costa Coffee,Unit 1A Tollgate Centre,,Colchester,Essex,CO3 8RG,51.8848241,0.8345488
Costa Coffee,Petrolea Close,Mile End,Colchester,Essex,CO4 5TU,51.9010702,0.9006552999999999
Costa Coffee,130 High Street,Coleshill,Birmingham,Warwickshire,B46 3BJ,52.4976686,-1.7060726
Costa Coffee,219 Edgware Road,,London,Greater London,NW9 6LP,51.5876905,-0.2520559
Costa Coffee,311-313 Collier Row Lane,Collier Row,Romford,Greater London,RM5 3ND,51.598792,0.163097
Costa Coffee,Newgate Lane,,Fareham,Hampshire,PO14 1AN,50.837635,-1.1857939
Costa Coffee,Coppetts Centre,North Circular Road,London,Greater London,N12 0SH,51.6071047,-0.1541696
Costa Coffee,Unit 4 Sea View Road,,Colwyn Bay,Conwy Principal Area,LL29 8DG,53.2956839,-3.7250993
Costa Coffee,132 Commercial Street,,London,Greater London,E1 6AZ,51.52143940000001,-0.0754512
Costa Coffee,70 High Street,,Congleton,Cheshire East,CW12 1BA,53.1630273,-2.2128858
Costa Coffee,Barn Road,Cheshire,Congleton,Cheshire East,CW12 1LR,53.1687993,-2.2179606
Costa Coffee,Hermiston Retail Park,,Consett,County Durham,DH8 5SB,54.848848,-1.8364156
Costa Coffee,21 Lower Road,Cookham,Maidenhead,Windsor and Maidenhead,SL6 9HJ,51.5575817,-0.7227159
Costa Coffee,11 Shifford Crescent,,Maidenhead,Windsor and Maidenhead,SL6 7UA,51.5388606,-0.7310325999999999
Costa Coffee,6 Copthall Avenue,,London,Greater London,EC2R 7DA,51.51594009999999,-0.0876687
Costa Coffee,Willow Place Shopping Centre,Willow Place,Corby,Northamptonshire,NN17 1BH,52.4865817,-0.7034629
Costa Coffee,43 High Street,Cosham,Portsmouth,,PO6 3BT,50.8451807,-1.0666544
Costa Coffee,Parkway Centre Middlesborough,Coulby Newham,Middlesbrough,,TS8 0TJ,54.5242631,-1.2161362
Costa Coffee,13 New Row,,London,Greater London,WC2N 4LF,51.51105990000001,-0.1256715
Costa Coffee,39 Shelton Street,,London,Greater London,WC2H 9HJ,51.5141001,-0.1246868
Costa Coffee,Kynner Way,,Coventry,West Midlands,CV3 2XA,52.39743010000001,-1.4330992
Costa Coffee,The Gallagher Retail Park,Stoney Stanton Road,Coventry,West Midlands,CV6 5QL,52.4307561,-1.4894042
Costa Coffee,Arena Shopping Park,Classic Drive,Rowley's Green,Coventry,CV6 6AS,52.44490099999999,-1.491801
Costa Coffee,Lynchgate Road,Cannon Park,Coventry,West Midlands,CV4 7EH,52.3874025,-1.5548435
Costa Coffee,The Precinct,,Coventry,West Midlands,CV1 1DD,52.4078947,-1.5122915
Costa Coffee,RING ROAD J9,Smithford Way,Coventry,West Midlands,CV1 1QX,52.4092656,-1.5121476
Costa Coffee,14 High Street,,Cowbridge,Vale of Glamorgan,CF71 7AG,51.4616203,-3.4473922
Costa Coffee,112 High Street,,Cowes,Isle of Wight,PO31 7AX,50.76202929999999,-1.2980035
Costa Coffee,145 Cowley Road,Cowley,Oxford,Oxfordshire,OX4 1HU,51.7478642,-1.236615
Costa Coffee,27 London Road,Cowplain,Waterlooville,Hampshire,PO8 8DF,50.8928521,-1.0200521
Costa Coffee,Foxoak Street,,Cradley Heath,West Midlands,B64 5HJ,52.4730172,-2.0810086
Costa Coffee,Unit 1B Westmoreland Retail Park,,Cramlington,Northumberland,NE23 6UY,55.085742,-1.595203
Costa Coffee,High Street,,Cranbrook,Kent,TN17 3EJ,51.0960517,0.532659
Costa Coffee,Unit 7 Stocklund Square,High Street,The Common,Cranleigh,GU6 8RG,51.141681,-0.4925312
Costa Coffee,Unit 1 The Pavilions,Queens Square,Crawley,West Sussex,RH10 1DE,51.11535800000001,-0.1872691
Costa Coffee,Unit 47 Southgate Avenue,,Crawley,West Sussex,RH10 1FF,51.1137068,-0.1866765
Costa Coffee,Crawley RH11 7XN,Crawley,Crawley,West Sussex,RH11 7XN,51.1332221,-0.1870529
Costa Coffee,Tinsley Lane South,,Crawley,West Sussex,RH10 1GY,51.12384960000001,-0.1631844
Costa Coffee,Unit 47 Southgate Avenue,,Crawley,West Sussex,RH10 1FF,51.1137068,-0.1866765
Costa Coffee,Crawley RH11 7XN,Crawley,Crawley,West Sussex,RH11 7XN,51.1332221,-0.1870529
Costa Coffee,Unit 3 TOWER RETAIL PARK,Crayford Road,Crayford,Dartford,DA1 4LD,51.4511203,0.1807547
Costa Coffee,28 High Street,,Crediton,Devon,EX17 3AH,50.79056629999999,-3.6596187
Costa Coffee,40 Market Street,,Crewe,Cheshire East,CW1 2EL,53.0978584,-2.4410851
Costa Coffee,Grand Junction Retail Park,Grand Junction Way,Crewe,Cheshire East,CW1 2RP,53.0969718,-2.433292
Costa Coffee,11-12 Falkland Square,,Crewkerne,Somerset,TA18 7JS,50.8839806,-2.7950553
Costa Coffee,63 Cricklewood Broadway,,London,Greater London,NW2 3JR,51.5538955,-0.2123692
Costa Coffee,43 Church Street,,Cromer,Norfolk,NR27 9HH,52.9309425,1.301029
Costa Coffee,30 Austhorpe Road,Cross Gates,Leeds,West Yorkshire,LS15 8DX,53.80722220000001,-1.4502778
Costa Coffee,1 The Broadway,,London,Greater London,N8 8DU,51.5785018,-0.1241109
Costa Coffee,High Street,,Crowborough,East Sussex,TN6 1BU,51.0595211,0.1624089
Costa Coffee,102,High Street,Crowthorne,Bracknell Forest,RG45 7AX,51.368713,-0.793369
Costa Coffee,Purley Way,,Croydon,Greater London,CR0 4RQ,51.3558406,-0.1154869
Costa Coffee,129-131 North End,,Croydon,Greater London,CR0 1TL,51.3768638,-0.1020339
Costa Coffee,North End,,Croydon,Greater London,CR0 1LP,51.3750947,-0.1000562
Costa Coffee,27 Westow Street,,London,Greater London,SE19 3RY,51.4186957,-0.08236059999999999
Costa Coffee,42 Eckington Way,Crystal Peaks,Upper Mall Level,Sheffield,S20 7PN,53.3419448,-1.3510121
Costa Coffee,18 Station Road,Cuffley,Potters Bar,Hertfordshire,EN6 4HT,51.7077871,-0.1124089
Costa Coffee,2 High Street,,Cullompton,Devon,EX15 1AA,50.8574904,-3.3930463
Costa Coffee,Tryst Road,Cumbernauld,Glasgow,North Lanarkshire,G67 1JW,55.945541,-3.989671
Costa Coffee,Tryst Road,Cumbernauld,Glasgow,North Lanarkshire,G67 1JW,55.945541,-3.989671
Costa Coffee,19 South Walk,,Cwmbran,Torfaen Principal Area,NP44 1PU,51.6524429,-3.0213757
Costa Coffee,4B Cwmbran Retail Park,Cwmbran Drive,Cwmbran,Torfaen Principal Area,NP44 3JQ,51.65339969999999,-3.027109
Costa Coffee,54,Kingsland High Street,London,Greater London,E8 2LX,51.54784919999999,-0.0752907
Costa Coffee,8 Northgate,,Darlington,,DL1 1NR,54.5260407,-1.5543891
Costa Coffee,Platform 4,,Darlington,,DL1 4AA,54.520985,-1.546639
Costa Coffee,Unit 8 c Prospect Place,,Dartford,Kent,DA1 1DY,51.4468854,0.2162316
Costa Coffee,Galleon Boulevard,,Dartford,Kent,DA2 6QE,51.454954,0.256479
Costa Coffee,9 Victoria Road,,Dartmouth,Devon,TQ6 9RT,50.3515167,-3.5798092
Costa Coffee,The Green,The Green,Datchet,Windsor and Maidenhead,SL3 9BJ,51.4839516,-0.5803537
Costa Coffee,21 & 22 Bowen Square,,Daventry,Northamptonshire,NN11 4DR,52.257182,-1.1619763
Costa Coffee,Hoppy Haven,High Street,Deal,Kent,CT14 6HE,51.2239022,1.4028857
Costa Coffee,15c Oakwood Hill Industrial Estate,Debden,Loughton,Essex,IG10 3TZ,51.643225,0.07891469999999999
Costa Coffee,Aberdeen AB11 6BE,Aberdeen,Aberdeen,Aberdeen City,AB11 6BE,57.1451805,-2.1002917
Costa Coffee,43 Eastgate Centre,,Basildon,Essex,SS14 1AE,51.56940909999999,0.4599834
Costa Coffee,County Mall Shopping Centre,,Crawley,West Sussex,RH10 1FG,51.113474,-0.1832842
Costa Coffee,98 Ocean Drive,Leith,Edinburgh,,EH6 6JJ,55.9808363,-3.177792
Costa Coffee,10 New Bond Street,,Weymouth,Dorset,DT4 8LY,50.6103582,-2.4559555
Costa Coffee,UNIT 1 Debenhams,Eagles Meadow,Wrexham,Wrexham Principal Area,LL13 8DG,53.044734,-2.9884558
Costa Coffee,209 Dedworth Road,,Windsor,Windsor and Maidenhead,SL4 4JW,51.477607,-0.6423471
Costa Coffee,87 Dedworth Road,,Windsor,Windsor and Maidenhead,SL4 5BB,51.47859709999999,-0.6346388
Costa Coffee,Unit 9A Crown Point,Shopping Park,Denton,Manchester,M34 3LX,53.4587061,-2.1195792
Costa Coffee,1 Giffin Street,,London,Greater London,SE8 4RJ,51.47787289999999,-0.025349
Costa Coffee,5 Traffic Street,,Derby,,DE1 2NL,52.9195611,-1.4724175
Costa Coffee,â¬  Kingsway Retail Park,,Derby,,DE22 3FA,52.9212702,-1.5062088
Costa Coffee,Unit SU 163 East Street,,Derby,,DE1 2PL,52.9186269,-1.4726874
Costa Coffee,45/47 Saint Peters Street,,Derby,,DE1 2AB,52.919211,-1.4719308
Costa Coffee,Unit 5 Derby Railway Station,,Derby,,DE1 2RU,52.9161613,-1.4633407
Costa Coffee,Wyvern Drive Thru Wywern Retail Park,,Derby,,DE21 6NZ,52.9174923,-1.4346274
Costa Coffee,Unit 5 Derby Railway Station,,Derby,,DE1 2RU,52.9161613,-1.4633407
Costa Coffee,8 Nelson Place,,Dereham,Norfolk,NR19 1AB,52.6809173,0.9420496999999999
Costa Coffee,Derriford Road,,Plymouth,,PL6 8DH,50.41672,-4.113684399999999
Costa Coffee,17 The Brittox,,Devizes,Wiltshire,SN10 1AJ,51.35238460000001,-1.9930417
Costa Coffee,27 The Market Place,,Devizes,Wiltshire,SN10 1JQ,51.3530625,-1.9961345
Costa Coffee,14-16 Longcauseway,,Dewsbury,West Yorkshire,WF13 1NH,53.6912622,-1.6281373
Costa Coffee,Unit 15 Main Street,Dickens Heath,Shirley,Solihull,B90 1UB,52.3851374,-1.8365757
Costa Coffee,Wallingford Road,,Didcot,Oxfordshire,OX11 9BZ,51.6054351,-1.2214981
Costa Coffee,683-693 Wilmslow Road,Didsbury,Manchester,Greater Manchester,M20 6RE,53.4174492,-2.2312642
Costa Coffee,7 Mere Street,,Diss,Norfolk,IP22 4AD,52.37572590000001,1.1091283
Costa Coffee,30-31 Baxter Gate,,Doncaster,South Yorkshire,DN1 1LD,53.52419519999999,-1.1346891
Costa Coffee,Wheatley Hall Road,,Doncaster,South Yorkshire,DN2 4PE,53.5434053,-1.0997117
Costa Coffee,Unit 30A White Rose Way,,Doncaster,South Yorkshire,DN4 5JH,53.5083972,-1.1150946
Costa Coffee,Trafford Way,,Doncaster,South Yorkshire,DN1 2PE,53.52211759999999,-1.139661
Costa Coffee,Trafford Way,,Doncaster,South Yorkshire,DN1 2PE,53.52211759999999,-1.139661
Costa Coffee,Herten Way,,Doncaster,South Yorkshire,DN4 7FW,53.5145575,-1.1028975
Costa Coffee,8 Cornhill,,Dorchester,Dorset,DT1 1BA,50.7149144,-2.436611
Costa Coffee,6,Copper Street,Dorchester,Dorset,DT1 1GH,50.70950999999999,-2.43762
Costa Coffee,2-4 High Street,,Dorking,Surrey,RH4 1AT,51.2313805,-0.3329054
Costa Coffee,1 Forest Road,Dorridge,Solihull,West Midlands,B93 8HA,52.3737066,-1.7525664
Costa Coffee,23-24 Biggin Street,,Dover,Kent,CT16 1BH,51.1269042,1.31132
Costa Coffee,Unit 20 Saint James Street,,Dover,Kent,CT16 1QD,51.12521659999999,1.3151104
Costa Coffee,Unit 20 Saint James Street,,Dover,Kent,CT16 1QD,51.12521659999999,1.3151104
Costa Coffee,11 The Harrow Way,,Basingstoke,Hampshire,RG22 4AZ,51.25207589999999,-1.1081295
Costa Coffee,7 Churchill Precinct,,Dudley,West Midlands,DY2 7BL,52.5105569,-2.0812617
Costa Coffee,8 Merry Hill,,Brierley Hill,West Midlands,DY5 1SY,52.47680279999999,-2.1104806
Costa Coffee,Central Way,,Brierley Hill,West Midlands,DY5 1SP,52.4812066,-2.1097785
Costa Coffee,77 High Street,,Dumbarton,West Dunbartonshire Council,G82 1LS,55.9430784,-4.5708734
Costa Coffee,Lomondgate Roundabout,,Dumbarton,West Dunbartonshire Council,G82 2QU,55.9567781,-4.5622034
Costa Coffee,52-54 High Street,,Dumfries,Dumfries and Galloway,DG1 2JA,55.0674641,-3.609875799999999
Costa Coffee,Lower Mall Overgate Shopping Centre Dundee GB DD1 1UE,,Dundee,Dundee City Council,DD1 1UE,56.459235,-2.9739474
Costa Coffee,Riverside Drive,,Dundee,Dundee City Council,DD2 1UG,56.4546795,-2.9763092
Costa Coffee,5-9 Murraygate,,Dundee,Dundee City Council,DD1 2EE,56.4618744,-2.9686512
Costa Coffee,Kingsway West Retail Park,Clepington Road,Dundee,Dundee City Council,DD3 8RX,56.4817619,-2.9955046
Costa Coffee,1 East Port,,Dunfermline,Fife,KY12 7JG,56.0715205,-3.4587729
Costa Coffee,Kingsgate Shopping Centre,,Dunfermline,Fife,KY12 7QU,56.0715676,-3.4596396
Costa Coffee,Maryport Road,,Workington,Cumbria,CA14 1NQ,54.6567297,-3.5527745
Costa Coffee,Stortford Road,Great Dunmow,Dunmow,Essex,CM6 1SF,51.8731863,0.346801
Costa Coffee,Nicholas Way,,Dunstable,Central Bedfordshire,LU6 1TD,51.8876875,-0.5210106999999999
Costa Coffee,Skimpot Road,,Dunstable,Central Bedfordshire,LU5 4JU,51.8896394,-0.4858068
Costa Coffee,Dunstable LU5 4WL,Dunstable,Dunstable,Central Bedfordshire,LU5 4WL,51.8897479,-0.5129794999999999
Costa Coffee,Unit 22 - High Street Prince Bishops Shopping Centre,,Durham,County Durham,DH1 3UJ,54.7766026,-1.5743624
Costa Coffee,North Road,,Durham,County Durham,DH1 4RB,54.77984379999999,-1.5819248
Costa Coffee,Unit N Arnison Retail Centre,Pity Me,Durham,County Durham,DH1 5GB,54.80809780000001,-1.5813582
Costa Coffee,Unit N Arnison Retail Centre,Pity Me,Durham,County Durham,DH1 5GB,54.80809780000001,-1.5813582
Costa Coffee,North Road,,Durham,County Durham,DH1 4RB,54.77984379999999,-1.5819248
Costa Coffee,101 The Broadway,,London,Greater London,W5 2NU,51.5126538,-0.3043501
Costa Coffee,437 Uxbridge Road,,London,Greater London,W5 3NT,51.5099697,-0.2875191
Costa Coffee,198 Earls Court Road,,London,Greater London,SW5 9QF,51.4927056,-0.1940306
Costa Coffee,282 East Barnet Road,East Barnet,London,Barnet,EN4 8TD,51.642469,-0.1632437
Costa Coffee,Kingston Road,,Dereham,Norfolk,NR19 1WB,52.6721583,0.9554638999999999
Costa Coffee,Parrs Wood Lane,East Didsbury,Manchester,Greater Manchester,M20 5NP,53.4118272,-2.2196212
Costa Coffee,64 High Road,,London,Greater London,N2 9PN,51.5889327,-0.1637793
Costa Coffee,32 London Road,,East Grinstead,West Sussex,RH19 1AG,51.1250053,-0.0087834
Costa Coffee,50 High Street North,,London,Greater London,E6 2HJ,51.5345664,0.0535168
Costa Coffee,300 Cornwall Street,East Kilbride,Glasgow,South Lanarkshire,G74 1LW,55.7598849,-4.179009499999999
Costa Coffee,Unit 4 Kingsgate Retail Park,Glasgow Road,East Kilbride,Glasgow,G74 4UN,55.7842759,-4.1690988
Costa Coffee,East Kilbride Shopping Centre,,East Kilbride,South Lanarkshire,G74 1PG,55.75961299999999,-4.174877
Costa Coffee,c1 Ireton House,Upper Richmond Road,London,Greater London,SW15 2TT,51.4594357,-0.2113453
Costa Coffee,389 Upper Richmond Road West,,London,Greater London,SW14 7NX,51.4643391,-0.2679204
Costa Coffee,95 Terminus Road,,Eastbourne,East Sussex,BN21 3NJ,50.7685085,0.2854042
Costa Coffee,Terminus Road,,Eastbourne,East Sussex,BN21 3NW,50.76912859999999,0.2818487
Costa Coffee,64 Kingfisher Drive,,Eastbourne,East Sussex,BN23 7RT,50.80345939999999,0.3039262
Costa Coffee,38 Eastcastle Street,,London,Greater London,W1W 8DS,51.5165242,-0.1393564
Costa Coffee,153 Field End Road,Eastcote,Pinner,Greater London,HA5 1QL,51.578486,-0.399139
Costa Coffee,Kiosk 1 The Swan Centre,,Eastleigh,Hampshire,SO50 5SF,50.9670238,-1.3536761
Costa Coffee,Eagle Way,Ebbsfleet Valley,Gravesend,Kent,DA11 9BJ,51.4487004,0.3209555
Costa Coffee,Unit 54A Green Street,Victoria,Ebbw Vale,Blaenau Gwent,NP23 8FP,51.7474116,-3.1951657
Costa Coffee,Unit 34 Broadwalk Shopping Centre,Station Road,London,Greater London,HA8 7BD,51.6126944,-0.2754694
Costa Coffee,108 Edgware Road,,London,Greater London,W2 2EA,51.5159056,-0.1638201
Costa Coffee,254 Edgware Road,,London,Greater London,W2 1DS,51.5191667,-0.1686111
Costa Coffee,Jubilee Road,Ingliston,Edinburgh,,EH12 9DN,55.9479528,-3.3649543
Costa Coffee,124-130 Bruntsfield Place,,Edinburgh,,EH10 4ES,55.9369112,-3.2077213
Costa Coffee,Unit 19 Lady Road,,Edinburgh,,EH16 5PB,55.9271314,-3.1645184
Costa Coffee,13a Castle Street,,Edinburgh,,EH2 3AH,55.9515573,-3.2027936
Costa Coffee,Earl Grey Street,,Edinburgh,,EH3 9BN,55.9446263,-3.2051591
Costa Coffee,1 Hanover Street,,Edinburgh,,EH2 2DL,55.9522972,-3.1963861
Costa Coffee,10-14 Morningside Road,,Edinburgh,,EH10 4DB,55.9338951,-3.2104396
Costa Coffee,132 High Street,,Musselburgh,East Lothian Council,EH21 7EA,55.94242089999999,-3.0507447
Costa Coffee,Unit 1,Victoria Dock,Leith,Edinburgh,EH6 7DZ,55.9783564,-3.1734198
Costa Coffee,p1 P2 Princes Mall,,Edinburgh,,EH1 1BQ,55.9527444,-3.1912803
Costa Coffee,50/54 Raeburn Place,Stockbridge,Edinburgh,,EH4 1HL,55.95924609999999,-3.2123364
Costa Coffee,78 South Bridge,,Edinburgh,,EH1 1HN,55.948452,-3.1868567
Costa Coffee,43 Saint Andrew Square,,Edinburgh,,EH2 2AD,55.9544828,-3.1927409
Costa Coffee,Straiton Retail Park,Straiton Park Way,Straiton,Loanhead,EH20 9QY,55.8838403,-3.1650096
Costa Coffee,7 Broughton Road,,Edinburgh,,EH7 4EW,55.9632167,-3.1955986
Costa Coffee,Colinton Mains Drive,,Edinburgh,,EH13 9AH,55.9113382,-3.2380022
Costa Coffee,Bonnyrigg Road,Eskbank,Dalkeith,Midlothian,EH22 3PP,55.882862,-3.085342
Costa Coffee,Meadow Place Road,Corstorphine,Edinburgh,,EH12 7UQ,55.94060409999999,-3.2950395
Costa Coffee,Unit 47 The Gyle,,Edinburgh,,EH12 9JU,55.9384235,-3.3141869
Costa Coffee,South Groathill Avenue,,Edinburgh,,EH4 2LN,55.9589758,-3.243229
Costa Coffee,39 Haddington Place,,Edinburgh,,EH7 4AG,55.9611511,-3.1813587
Costa Coffee,145 Saint John's Road,Corstorphine,Edinburgh,,EH12 7SD,55.9426486,-3.2821434
Costa Coffee,Chesser Avenue,,Edinburgh,,EH14 1RJ,55.9293975,-3.245423600000001
Costa Coffee,Jubilee Road,Ingliston,Edinburgh,,EH12 9DN,55.9479528,-3.3649543
Costa Coffee,North Mall,edmonton green shopping centre,London,Greater London,N9 0EJ,51.6245835,-0.05712799999999999
Costa Coffee,64-65 High Street,,Egham,Surrey,TW20 9EY,51.4323845,-0.5459615999999999
Costa Coffee,9 Eldon Street,Broadgate,London,Greater London,EC2M 7LS,51.5186326,-0.0852657
Costa Coffee,66-68 High Street,,Elgin,Moray,IV30 1BJ,57.648821,-3.313776
Costa Coffee,Springfield Retail Park,Edgar Road,Elgin,Moray,IV30 6WQ,57.63995719999999,-3.3104733
Costa Coffee,46-48 Mercer Walk,,Ellesmere Port,Cheshire West and Chester,CH65 0AP,53.2777964,-2.8995654
Costa Coffee,Elm Park Hotel,Elm Park Avenue,Hornchruch,Hornchurch,RM12 4RX,51.5511804,0.1985673
Costa Coffee,101 Eltham High Street,,London,Greater London,SE9 1TD,51.4508915,0.0541488
Costa Coffee,10 Market Street,,Ely,Cambridgeshire,CB7 4PB,52.3999901,0.265435
Costa Coffee,Tesco Ely The Dock,,Ely,Cambridgeshire,CB7 4DJ,52.39135839999999,0.2657318
Costa Coffee,Downham Road,,Ely,Cambridgeshire,CB6 2WH,52.4092749,0.251203
Costa Coffee,Unit 8A The Village,Emerson Way,Emersons Green,Bristol,BS16 7AD,51.49250869999999,-2.4742543
Costa Coffee,10- 12 High Street,,Emsworth,Hampshire,PO10 7AW,50.8468461,-0.9366065
Costa Coffee,26 Palace Gardens,,Enfield,Greater London,EN2 6SN,51.65220069999999,-0.08291699999999999
Costa Coffee,Enfield Retail Park,Crown Road,London,Greater London,EN1 1TH,51.65357580000001,-0.0573177
Costa Coffee,288 High Street,,London,Greater London,EN3 4DP,51.6477276,-0.0478922
Costa Coffee,189 High Street,,Epping,Essex,CM16 4BL,51.6991502,0.1110488
Costa Coffee,Ashley Centre,,Epsom,Surrey,KT18 5DA,51.3330929,-0.26758
Costa Coffee,Unit 2A Train Station,,Epsom,Surrey,KT19 8EU,51.3343333,-0.2680508
Costa Coffee,6,,Erith,Greater London,DA8 1SE,51.4803492,0.1805005
Costa Coffee,3 High Street,,Esher,Surrey,KT10 9RS,51.3708333,-0.3627778
Costa Coffee,65 High Street,Eton,Windsor,Windsor and Maidenhead,SL4 6AS,51.4863839,-0.6086431999999999
Costa Coffee,Unit 4 Euston Station,,London,Greater London,NW1 2DU,51.5283549,-0.1338991
Costa Coffee,Unit 3 - Kings Cross & St Pancras Underground Station,,London,Greater London,N1C 4AL,51.53,-0.1244444
Costa Coffee,37 Bridge Street,,Evesham,Worcestershire,WR11 4SQ,52.09226229999999,-1.9454531
Costa Coffee,Worcester Road,,Evesham,Worcestershire,WR11 4XF,52.1016465,-1.9517023
Costa Coffee,64-66 High Street,Ewell,Epsom,Surrey,KT17 1RN,51.3481704,-0.2498374
Costa Coffee,Unit SU48 Princesshay Shopping Centre,,Exeter,Devon,EX1 1LL,50.7237558,-3.5287628
Costa Coffee,1 Isambard Parade,,Exeter,Devon,EX4 4BX,50.7289817,-3.5424768
Costa Coffee,Marsh Barton,Marsh Barton,Exeter,Devon,EX2 8LH,50.7091497,-3.5350472
Costa Coffee,34/35 Guildhall Shopping Centre,,Exeter,Devon,EX4 3NJ,50.72457439999999,-3.5321203
Costa Coffee,Digby Drive,,Exeter,Devon,EX2 7HX,50.7109202,-3.4824122
Costa Coffee,228 High Street,,Exeter,Devon,EX4 3LR,50.724124,-3.5307058
Costa Coffee,The Exebridge Centre,,Exeter,Devon,EX4 1AH,50.7165584,-3.5376281
Costa Coffee,36 Chapel Street,,Exmouth,Devon,EX8 1HW,50.6200938,-3.4118168
Costa Coffee,10 Bridge Street,,Fakenham,Norfolk,NR21 9AQ,52.8295356,0.8484796
Costa Coffee,6-12 Kirk Wynd,,Falkirk,,FK1 1JR,55.999668,-3.784829
Costa Coffee,11 Grahams Road,,Falkirk,,FK1 1LD,56.0028859,-3.7836535
Costa Coffee,High Street,,Falkirk,,FK1 1HG,55.998743,-3.786763
Costa Coffee,35 Market Street,,Falmouth,Cornwall,TR11 3AR,50.1554493,-5.0691094
Costa Coffee,Delme Square,Westbury Road,Fareham,Hampshire,PO16 0PF,50.8530544,-1.17868
Costa Coffee,Tesco,Quay Street,Fareham,Hampshire,PO16 0LE,50.8509045,-1.1761433
Costa Coffee,Whiteley Way,Whiteley,Fareham,Hampshire,PO15 7LJ,50.8844185,-1.2452498
Costa Coffee,Unit 6B Market Quay,,Fareham,Hampshire,PO16 0BT,50.8518911,-1.1782143
Costa Coffee,Blackwater Shopping Centre,Farnborough Road,Farnborough,Hampshire,GU14 8BL,51.3083725,-0.7488885000000001
Costa Coffee,120 West Street,,Farnham,Surrey,GU9 7HH,51.2145962,-0.8002956
Costa Coffee,14,Beaconsfield Road,Farnham Common,Slough,SL2 3NE,51.5551745,-0.6156132
Costa Coffee,268 Farnham Road,,Slough,,SL1 4XL,51.52448099999999,-0.6150599
Costa Coffee,Crescent Road,,Faversham,Kent,ME13 7AS,51.3167428,0.893354
Costa Coffee,74-76 Hamilton Road,,Felixstowe,Suffolk,IP11 7AF,51.9632401,1.3517736
Costa Coffee,36 The Centre,,Feltham,Greater London,TW13 4AU,51.4465903,-0.4109773
Costa Coffee,77-79 Victoria Road,,Ferndown,Dorset,BH22 9HU,50.802845,-1.8908667
Costa Coffee,32 Ballards Lane,,London,Greater London,N3 2BJ,51.602338,-0.192098
Costa Coffee,253 Seven Sisters Road,,London,Greater London,N4 2DD,51.5644444,-0.1052778
Costa Coffee,Fitzwilliam Road,,Rotherham,South Yorkshire,S65 3LA,53.4423302,-1.3237008
Costa Coffee,12,Straight Bit,Flackwell Heath,High Wycombe,HP10 9LS,51.6001261,-0.7084809999999999
Costa Coffee,Fleet Road,,Fleet,Hampshire,GU51 3LA,51.2804617,-0.8420637999999999
Costa Coffee,156 Fleet Road,,Fleet,Hampshire,GU51 4BE,51.2815814,-0.8419451
Costa Coffee,40 Sandgate Road,,Folkestone,Kent,CT20 1DW,51.0790973,1.1791769
Costa Coffee,Unit 1 Silverpoint,Fore Street,London,Greater London,N18 2SL,51.6114464,-0.0649652
Costa Coffee,Off Fulmar Close,Old Mill Lane,Forest Town,Mansfield,NG19 0HA,53.1558952,-1.1727285
Costa Coffee,16-18 Castle Street,,Forfar,Angus Council,DD8 3AD,56.64483449999999,-2.8880169
Costa Coffee,19 Chapel Lane,Formby,Liverpool,Merseyside,L37 4DL,53.5569652,-3.0613724
Costa Coffee,Nairn Road,,Forres,Moray,IV36 2EY,57.60825939999999,-3.6257772
Costa Coffee,Unit 35A Newcraighall Road,,Edinburgh,,EH15 3RD,55.9335158,-3.1047817
Costa Coffee,Pegasus Way,,London,Greater London,N11 3PW,51.6108203,-0.143358
Costa Coffee,56 Connaught Avenue,,Frinton-on-Sea,Essex,CO13 9PR,51.83227369999999,1.2454537
Costa Coffee,14 Church Street,,Frodsham,Cheshire West and Chester,WA6 6QL,53.29499999999999,-2.7250001
Costa Coffee,9/10 Market Place,,Frome,Somerset,BA11 1AD,51.23161109999999,-2.3211056
Costa Coffee,286 Garstang Road,Fulwood,Preston,Lancashire,PR2 9RX,53.7912909,-2.7130528
Costa Coffee,Unit 27 Marshalls Yard,,Gainsborough,Lincolnshire,DN21 2AY,53.39910860000001,-0.7725761999999999
Costa Coffee,Marshalls Yard,,Gainsborough,Lincolnshire,DN21 2NA,53.3994401,-0.7724813
Costa Coffee,Gala Water Retail Park,Huddersfield Street,Galashiels,Scottish Borders,TD1 3AZ,55.6142575,-2.8031976
Costa Coffee,32 Main Street,Garforth,Leeds,West Yorkshire,LS25 1AA,53.7945419,-1.3880294
Costa Coffee,Unit 5 Gateacre Local Centre,Gateacre Park Drive,Liverpool,Merseyside,L25 1PD,53.3915567,-2.8723639
Costa Coffee,Trinity Square,,Gateshead,Tyne and Wear,NE8 1AG,54.9624034,-1.6018679
Costa Coffee,Unit 64A,Metrocentre,Gateshead,Tyne and Wear,NE11 9YQ,54.9566214,-1.6669367
Costa Coffee,22 Team Valley Retail Park,Team Valley,Gateshead,Tyne and Wear,NE11 0BD,54.9232792,-1.6185702
Costa Coffee,2 North Terminal,Departures Road,Horley,Gatwick,RH6 0PJ,51.161383,-0.1772833
Costa Coffee,2 North Terminal,Departures Road,Horley,Gatwick,RH6 0PJ,51.161383,-0.1772833
Costa Coffee,73 Packhorse Road,,Gerrards Cross,Buckinghamshire,SL9 8PQ,51.5890893,-0.5524603
Costa Coffee,83 Main Road,,Romford,Greater London,RM2 5EL,51.586734,0.200045
Costa Coffee,2 High Street,,Gillingham,Dorset,SP8 4QT,51.0370589,-2.272514
Costa Coffee,133 High Street,Chatham,Gillingham,Medway,ME7 1BS,51.38686,0.547377
Costa Coffee,50 Bothwell Street,,Glasgow,Glasgow City,G2 6HR,55.8614067,-4.2613856
Costa Coffee,Junction 26 Braillie Cresent,Renfrew,Glasgow,Renfrewshire,PA4 0DJ,55.8678396,-4.3685316
Costa Coffee,Leggatston Drive,Darnley,Glasgow,Glasgow City,G53 7RH,55.8040405,-4.3410259
Costa Coffee,1221 Gallowgate,Parkhead,Glasgow,Glasgow City,G31 4EB,55.8534714,-4.1999705
Costa Coffee,Braehead Shopping Centre,King's Inch Road,Braehead,Glasgow,G51 4BS,55.8739966,-4.3628845
Costa Coffee,212 Sauchiehall Street,,Glasgow,Glasgow City,G2 3EF,55.86511909999999,-4.2599987
Costa Coffee,Unit X8,,Glasgow,Glasgow City,G53 6QR,55.8221295,-4.341807999999999
Costa Coffee,67 Saint Vincent Street,,Glasgow,Glasgow City,G2 5TF,55.86120390000001,-4.2555097
Costa Coffee,Strathkelvin Retail Park,Bishopbriggs,Glasgow,East Dunbartonshire Council,G64 2TS,55.9216267,-4.2074411
Costa Coffee,Auldhouse R.P,Cogan Street,Pollokshaws,Glasgow,G43 1AP,55.8217689,-4.297466700000001
Costa Coffee,Argyle Street,,Glasgow,Glasgow City,G2 8AR,55.8576026,-4.252448999999999
Costa Coffee,15b Glasgow Fort,Auchinlea Road,Glasgow,Glasgow City,G34 9DL,55.8700959,-4.137351
Costa Coffee,50 George Square,,Glasgow,Glasgow City,G2 1EH,55.86174519999999,-4.2497761
Costa Coffee,Glossop Brook Road,,Glossop,Derbyshire,SK13 8GN,53.4441159,-1.9575657
Costa Coffee,9 Southgate Street,,Gloucester,Gloucestershire,GL1 1TG,51.8649359,-2.2460411
Costa Coffee,31-33 Kings Walk Shopping Centre,,Gloucester,Gloucestershire,GL1 1RY,51.8649825,-2.2430482
Costa Coffee,Gloucester Quays,,Gloucester,Gloucestershire,GL1 5SF,51.8590356,-2.2518305
Costa Coffee,Unit 3 Retail Park,Saint Oswalds Road,Gloucester,Gloucestershire,GL1 2UE,51.8732613,-2.246752
Costa Coffee,Unit 1 - Whittle Way,,Gloucester,Gloucestershire,GL3 4BJ,51.8477145,-2.1718663
Costa Coffee,Gloucester Quays,,Gloucester,Gloucestershire,GL1 5SF,51.8590356,-2.2518305
Costa Coffee,74 High Street,,Godalming,Surrey,GU7 1DU,51.1855683,-0.6134031
Costa Coffee,13 Golders Green Road,,London,Greater London,NW11 8HB,51.5717564,-0.1960889
Costa Coffee,35 Goodmayes Road,Goodmayes,Ilford,Greater London,IG3 9UH,51.56575309999999,0.1106212
Costa Coffee,231 Gorgie Road,,Edinburgh,,EH11 1TU,55.937068,-3.235333
Costa Coffee,23,Goring Road,Worthing,West Sussex,BN12 4AR,50.8131897,-0.4029536
Costa Coffee,134 - 136 High Street,Gorleston-on-Sea,Great Yarmouth,Norfolk,NR31 6QX,52.5779164,1.7271796
Costa Coffee,Unit 8 The Gosforth Centre,Gosforth,Newcastle upon Tyne,Tyne and Wear,NE3 1JZ,55.0054989,-1.6198606
Costa Coffee,116 High Street,,Gosport,Hampshire,PO12 1DU,50.7952373,-1.1213348
Costa Coffee,68 Goswell Road,,London,Greater London,EC1M 7AD,51.5233333,-0.09805559999999999
Costa Coffee,58 La Porte Precinct,,Grangemouth,Falkirk,FK3 8BG,56.01820919999999,-3.7240215
Costa Coffee,Station Road,,Grantham,Lincolnshire,NG31 6BT,52.90679290000001,-0.6432087
Costa Coffee,Isaac Newton Centre,,Grantham,Lincolnshire,NG31 6EE,52.910534,-0.6413631
Costa Coffee,1 New Road,,Gravesend,Kent,DA11 0AA,51.44263249999999,0.3692482
Costa Coffee,257-259 Grays Inn Road,,London,Greater London,WC1X 8QT,51.5288889,-0.12
Costa Coffee,Unit 22 The Mall,,Grays,Thurrock,RM17 6QE,51.4772948,0.3230761
Costa Coffee,263 Great Ancoats Street,,Manchester,Greater Manchester,M4 7DB,53.479351,-2.221956
Costa Coffee,Unit 3 Saint Leger Court,Great Linford,Milton Keynes,,MK14 5HA,52.0657503,-0.7594995
Costa Coffee,101a Church Street,,Malvern,Worcestershire,WR14 2AE,52.1116381,-2.3272433
Costa Coffee,14 Great Marlborough Street,,London,Greater London,W1F 7HP,51.5145677,-0.1388871
Costa Coffee,4 Great Portland Street,,London,Greater London,W1W 8QJ,51.5158831,-0.1407244
Costa Coffee,18 Great Suffolk Street,,London,Greater London,SE1 0UG,51.5052747,-0.1013167
Costa Coffee,421 Green Lanes,,London,Greater London,N4 1EY,51.5785863,-0.09920530000000001
Costa Coffee,Greenford Road,,Greenford,Greater London,UB6 0UW,51.5426934,-0.3395278
Costa Coffee,Unit G3 The Broadway,,Greenford,Greater London,UB6 9PR,51.5273944,-0.3525517
Costa Coffee,Hoover Building,Western Avenue,Greenford,Greater London,UB6 8DW,51.5339478,-0.3182504
Costa Coffee,124-126 New Line,Apperley Bridge,Bradford,West Yorkshire,BD10 0BX,53.83112999999999,-1.712182
Costa Coffee,44-46 Greenwich Church Street,,London,Greater London,SE10 9BL,51.48157,-0.0099214
Costa Coffee,10 Peninsula Square,,London,Greater London,SE10 0EN,51.5013339,0.005283599999999999
Costa Coffee,Unit 3 7 Lambarde Square,,London,Greater London,SE10 9GB,51.4860439,0.0090384
Costa Coffee,99 Gresham Street,,London,Greater London,EC2V 7NG,51.5151167,-0.0904194
Costa Coffee,Unit 46b Gretna Gateway Outlet Village,,Gretna,Dumfries and Galloway,DG16 5GG,54.9970286,-3.0587996
Costa Coffee,Victoria Street West,Freshney Place,Grimsby,North East Lincolnshire,DN31 1ED,53.56644499999999,-0.0862785
Costa Coffee,164 Millbrook,,Guildford,Surrey,GU1 3UU,51.2346738,-0.576074
Costa Coffee,Unit 34 The Friary centre,,Guildford,Surrey,GU1 4YW,51.237062,-0.5763533
Costa Coffee,Unit 2B Ladymead Retail Park,Europa Park Road,Guildford,Surrey,GU1 1AJ,51.2488283,-0.5788007
Costa Coffee,111 Guilford Street,,London,Greater London,WC1N 1DP,51.5244084,-0.1161517
Costa Coffee,25-35 Westgate,,Guisborough,Redcar and Cleveland,TS14 6BG,54.53527829999999,-1.05301
Costa Coffee,Unit 8 Guiseley Retail Park,Guiseley,Leeds,West Yorkshire,LS20 8QH,53.8717913,-1.7095022
Costa Coffee,Newton Port,,Haddington,East Lothian Council,EH41 3LZ,55.9563776,-2.7794575
Costa Coffee,269 London Road,Hadleigh,Benfleet,Essex,SS7 2BN,51.55295470000001,0.6109228999999999
Costa Coffee,26 High Street,,Hailsham,East Sussex,BN27 1BJ,50.863397,0.2594770000000001
Costa Coffee,5-6 Century House,Ashley Road,Hale,Altrincham,WA15 9SF,53.3765897,-2.3454469
Costa Coffee,Unit 5 The Square,Hale Road,Hale Barns,Altrincham,WA15 8ST,53.3689601,-2.314565
Costa Coffee,b63,,Halesowen,West Midlands,B63 4AJ,52.4487017,-2.0520398
Costa Coffee,8 Woolshops,,Halifax,West Yorkshire,HX1 1RU,53.7230556,-1.8583333
Costa Coffee,Haugh Shaw Road,,Halifax,West Yorkshire,HX1 3TU,53.7148797,-1.8774705
Costa Coffee,1-3 Weavers Court,,Halstead,Essex,CO9 2JN,51.9438891,0.6359038
Costa Coffee,420-422 Richmond Road,,Kingston upon Thames,Greater London,KT2 5PU,51.4307932,-0.306831
Costa Coffee,Unit 28 Regent Way,,Hamilton,South Lanarkshire,ML3 7DZ,55.7747872,-4.0335667
Costa Coffee,Unit 24E Broadway Shopping Centre,,London,Greater London,W6 9YD,51.4919583,-0.2238083
Costa Coffee,68 High Street,Hampton Hill,Hampton,Greater London,TW12 1NY,51.4266945,-0.3557472
Costa Coffee,26 & 27 The Paddock,Wilmslow Road,Handforth,Wilmslow,SK9 3HQ,53.3503774,-2.2164628
Costa Coffee,Handforth Dean Retail Park,Earl Road,Handforth,Wilmslow,SK9 3TJ,53.3493553,-2.205671
Costa Coffee,187 Handsworth Road,Handsworth,Yorkshire,Sheffield,S13 8HR,53.3761309,-1.3946595
Costa Coffee,134 Middle Mall,Hanley,Stoke-on-Trent,,ST1 1PS,53.0268441,-2.1750685
Costa Coffee,134 Middle Mall,Hanley,Stoke-on-Trent,,ST1 1PS,53.0268441,-2.1750685
Costa Coffee,Stoke-on-Trent ST1 5SJ,,Stoke-on-Trent,,ST1 5SJ,53.0287398,-2.1934031
Costa Coffee,101 High Street,Harborne,Birmingham,West Midlands,B17 9NR,52.4595146,-1.9472406
Costa Coffee,Green Lanes,,London,Greater London,N4 1ED,51.576431,-0.097676
Costa Coffee,Harlaxton Road,,Grantham,Lincolnshire,NG31 7SA,52.9016472,-0.6512245
Costa Coffee,100 High Street,,London,Greater London,NW10 4SL,51.5360086,-0.2453839
Costa Coffee,35 Broad Walk,,Harlow,Essex,CM20 1JF,51.769681,0.0947572
Costa Coffee,Unit 14 The Queensgate Centre,Edinburgh Way,Harlow,Essex,CM20 2DA,51.7836676,0.1087951
Costa Coffee,The Water Gardens,South Gate,Harlow,Essex,CM20 1AB,51.767805,0.0953622
Costa Coffee,11 High Street,,Harpenden,Hertfordshire,AL5 2RT,51.81500279999999,-0.3549746
Costa Coffee,11-13 Beulah Street,,Harrogate,North Yorkshire,HG1 1QQ,53.9938081,-1.5389706
Costa Coffee,76-80 St Anns Road,,Harrow,Greater London,HA1 1JX,51.5816031,-0.337236
Costa Coffee,Station Road,,Harrow,Greater London,HA1 2TU,51.5859092,-0.3340287
Costa Coffee,63 - 65 College Road,Harrow on the Hill,Harrow,Greater London,HA1 1FD,51.5799694,-0.3366628
Costa Coffee,351 Harrow Road,,London,Greater London,W9 3RA,51.52403169999999,-0.2015722
Costa Coffee,3 Next,Marina Way,Hartlepool,,TS24 0XR,54.6910501,-1.2109617
Costa Coffee,95-96 Middleton Grange Shopping Centre,,Hartlepool,,TS24 7RF,54.6832722,-1.2152462
Costa Coffee,High Street,Hartley Wintney,Hook,Hampshire,RG27 8NY,51.3062992,-0.9003008
Costa Coffee,42 High Street,,Haslemere,Surrey,GU27 2LA,51.0885294,-0.708745
Costa Coffee,Skye Street,Haslingden,Rossendale,Lancashire,BB4 6LY,53.6941893,-2.316341200000001
Costa Coffee,14-15 York Buildings Wellington Plaza,,Hastings,East Sussex,TN34 1NN,50.8557229,0.5805030999999999
Costa Coffee,Unit 61 Comet Way,,Hatfield,Hertfordshire,AL10 0XR,51.7606662,-0.2409868
Costa Coffee,Unit 1A,Oldings Corner,Hatfield,Hertfordshire,AL9 5JU,51.7760182,-0.2234655
Costa Coffee,Unit 1C Hattersley Centre,,Ormskirk,Lancashire,L39 2AN,53.5732727,-2.8804461
Costa Coffee,86 Hatton Garden,,London,Greater London,EC1N 8QQ,51.5197009,-0.1085749
Costa Coffee,1,Selbourne Road,Havant,Hampshire,PO9 1ND,50.8500668,-0.9879998999999998
Costa Coffee,15 Riverside Quay,,Haverfordwest,Pembrokeshire,SA61 2LJ,51.8033024,-4.9676596
Costa Coffee,23 High Street,,Haverhill,Suffolk,CB9 8AR,52.082456,0.439111
Costa Coffee,210 Haverstock Hill,,London,Greater London,NW3 2AG,51.5510163,-0.1652787
Costa Coffee,52 High Street,,Hawick,Scottish Borders,TD9 9EE,55.4230531,-2.7861015
Costa Coffee,Unit 1 Ryedale Court Shopping Centre,The Village,Haxby,York,YO32 3SA,54.0159902,-1.072953
Costa Coffee,Church Road,Haydock,Saint Helens,Merseyside,WA11 0TH,53.4649028,-2.6652361
Costa Coffee,Lombardy Retail Park,Coldharbour Lane,Hayes,Greater London,UB3 3EX,51.5166203,-0.4036778
Costa Coffee,10 Station Road,,Hayes,Greater London,UB3 4DA,51.5066667,-0.4191667
Costa Coffee,Lombardy Retail Park,Coldharbour Lane,Hayes,Greater London,UB3 3EX,51.5166203,-0.4036778
Costa Coffee,Marsh Lane,,Hayle,Cornwall,TR27 5LX,50.1963061,-5.3976031
Costa Coffee,Unit 20-21 Hayâs Galleria,,London,Greater London,SE1 2HD,51.5057629,-0.08332850000000001
Costa Coffee,72 South Road,,Haywards Heath,West Sussex,RH16 4LA,50.9969957,-0.1024272
Costa Coffee,27 High Street,Headcorn,Ashford,Kent,TN27 9NH,51.1679329,0.6217716999999999
Costa Coffee,Unit 3 Arndale Centre,Otley Road,Headingley,Leeds,LS6 2UE,53.8215495,-1.5776886
Costa Coffee,Heanor Retail Park,High Street,Heanor,Derbyshire,DE75 7EX,53.0154412,-1.3580078
Costa Coffee,83 High Street,,Heathfield,East Sussex,TN21 8JA,50.9704857,0.2481082999999999
Costa Coffee,7 Upper Northam Road,Hedge End,Southampton,Hampshire,SO30 4DY,50.91363699999999,-1.3047623
Costa Coffee,Victoria Street,Hednesford,Cannock,Staffordshire,WS12 1BT,52.7107544,-1.9992996
Costa Coffee,28 West Princes Street,,Helensburgh,Argyll and Bute Council,G84 8TD,56.0041845,-4.7344494
Costa Coffee,28 Meneage Street,,Helston,Cornwall,TR13 8AB,50.1003748,-5.2731113
Costa Coffee,Clodgey Lane,,Helston,Cornwall,TR13 8PJ,50.10509279999999,-5.2651659
Costa Coffee,Unit 1 Riverside Shopping Centre,,Hemel Hempstead,Hertfordshire,HP1 1BT,51.7473402,-0.4736955
Costa Coffee,F11a Hempstead Valley Drive,Hempstead,Gillingham,Medway,ME7 3PD,51.3410336,0.5724175
Costa Coffee,14 Central Circus,,London,Greater London,NW4 3AS,51.58307989999999,-0.2268845
Costa Coffee,14 Central Circus,,London,Greater London,NW4 3AS,51.58307989999999,-0.2268845
Costa Coffee,68 High Street,,Henley-in-Arden,Warwickshire,B95 5DA,52.2935394,-1.7797273
Costa Coffee,The Old Market,Garrick Lane,Hereford,Herefordshire,HR4 9HU,52.0584582,-2.7157886
Costa Coffee,14-15 High Street,,Hereford,Herefordshire,HR1 2AA,52.0567583,-2.715235400000001
Costa Coffee,Molesey Road,Hersham,Walton-on-Thames,Surrey,KT12 4HL,51.3652913,-0.3993124
Costa Coffee,163 Hertford Road,,Enfield,Greater London,EN3 5JG,51.65788149999999,-0.04698459999999999
Costa Coffee,6-8 Orchard Centre,The Square,Hessle,East Riding of Yorkshire,HU13 0AA,53.722919,-0.4346275
Costa Coffee,246 Telegraph Road,Heswall,Wirral,Merseyside,CH60 7SG,53.3289361,-3.0994877
Costa Coffee,3-5 Fore Street,,Hexham,Northumberland,NE46 1ND,54.971199,-2.1011322
Costa Coffee,Tynedale Retail park,Alemouth Road,Hexham,Northumberland,NE46 3PS,54.9741537,-2.1004253
Costa Coffee,226 High Holborn,,London,Greater London,WC1V 7DZ,51.5175141,-0.1200302
Costa Coffee,1-2 Church Square,,High Wycombe,Buckinghamshire,HP11 2BN,51.6296348,-0.75078
Costa Coffee,Crest Road,,High Wycombe,Buckinghamshire,HP11 1UA,51.6131806,-0.7733083
Costa Coffee,41-43 Newland Street,,High Wycombe,Buckinghamshire,HP11 2BY,51.6298469,-0.7563797
Costa Coffee,Larkshall road,,London,Greater London,E4 9JD,51.608536,-0.0015333
Costa Coffee,66 Highgate High Street,,London,Greater London,N6 5HX,51.5709009,-0.1480765
Costa Coffee,Marlborough Parade,Uxbridge Road,Hillingdon,Uxbridge,UB10 0LR,51.5301668,-0.4472329
Costa Coffee,40 Hills Road,,Cambridge,Cambridgeshire,CB2 1LA,52.19711789999999,0.1291669
Costa Coffee,552-558 Langsett Road,Hillsborough,Sheffield,South Yorkshire,S6 2LX,53.402146,-1.4999081
Costa Coffee,30 Station Approach,Hinchley Wood,Esher,Surrey,KT10 0SR,51.3743973,-0.3391576
Costa Coffee,25 Castle Street,,Hinckley,Leicestershire,LE10 1DA,52.54151539999999,-1.371257
Costa Coffee,Unit B2a - 9 The Crescent,,Hinckley,Leicestershire,LE10 0QQ,52.53890269999999,-1.3750054
Costa Coffee,11c Bancroft,,Hitchin,Hertfordshire,SG5 1JQ,51.9494053,-0.2777011
Costa Coffee,5 Spa Road,,Hockley,Essex,SS5 4AZ,51.60141340000001,0.6544986
Costa Coffee,Unit 10/11 & 12 Morrisons Centre,,Hoddesdon,Hertfordshire,EN11 8UD,51.7619468,-0.0110114
Costa Coffee,382 Holloway Road,,London,Greater London,N7 6PN,51.5566667,-0.1172222
Costa Coffee,High Street,,Honiton,Devon,EX14 1PE,50.7999167,-3.1888485
Costa Coffee,61 Victoria Road,,Horley,Surrey,RH6 7QH,51.1706134,-0.1624815
Costa Coffee,18 Market Place,,Horncastle,Lincolnshire,LN9 5BN,53.2089255,-0.116134
Costa Coffee,94 High Street,,Hornchurch,Greater London,RM12 4UH,51.5627116,0.2177801
Costa Coffee,158 High Street,,Hornchurch,Greater London,RM12 6QX,51.5619933,0.2202227
Costa Coffee,33 Town Street,Horsforth,Leeds,West Yorkshire,LS18 5LJ,53.83759149999999,-1.6412855
Costa Coffee,12A West Street,,Horsham,West Sussex,RH12 1PB,51.06244539999999,-0.330456
Costa Coffee,12 Swan Walk,,Horsham,West Sussex,RH12 1HQ,51.0633054,-0.3297128
Costa Coffee,Unit 19D The Linkway,Horwich,Bolton,Greater Manchester,BL6 6JA,53.5843706,-2.5367707
Costa Coffee,71 Newbottle Street,,Houghton le Spring,Tyne and Wear,DH4 4AR,54.8448639,-1.4718239
Costa Coffee,241 High Street,,Hounslow,Greater London,TW3 1EA,51.4684132,-0.3637417
Costa Coffee,108a High Street,,Hounslow,Greater London,TW3 1NA,51.4697552,-0.3586476
Costa Coffee,Costa Coffee,George Street,Hove,Brighton and Hove,BN3 3YA,50.8289584,-0.1736603
Costa Coffee,Tesco,Church Road,Hove,Brighton and Hove,BN3 2DL,50.8288422,-0.1759714
Costa Coffee,129 Portland Road,,Hove,Brighton and Hove,BN3 5QY,50.8333304,-0.1843095
Costa Coffee,Norwich Road,Hoveton,Norwich,Norfolk,NR12 8AJ,52.7118862,1.4094982
Costa Coffee,King Street,,Huddersfield,West Yorkshire,HD1 2QB,53.6455309,-1.7785035
Costa Coffee,Leeds Road & Hill House Lane,,Huddersfield,West Yorkshire,HD1 6ND,53.6552297,-1.7756306
Costa Coffee,26 New Street,,Huddersfield,West Yorkshire,HD1 2BU,53.6457043,-1.7829726
Costa Coffee,Anlaby Retail Park,Anlaby,Hull,East Riding of Yorkshire,HU10 6RJ,53.7482175,-0.4247153
Costa Coffee,24-26 King Edward Street,,Hull,Kingston upon Hull,HU1 3SS,53.7446897,-0.3399556
Costa Coffee,Unit 5 Kingston Street,,Hull,Kingston upon Hull,HU1 2TX,53.7389282,-0.3440988
Costa Coffee,Kingswood Retail Park,Althorp Road,Hull,Kingston upon Hull,HU7 3DA,53.79552520000001,-0.3476764
Costa Coffee,Kingswood Retail Park,Althorp Road,Hull,Kingston upon Hull,HU7 3DA,53.79552520000001,-0.3476764
Costa Coffee,93 Ferensway,,Hull,Kingston upon Hull,HU2 8LD,53.745767,-0.3452878
Costa Coffee,Paragon Station,Ferensway,Hull,Kingston upon Hull,HU1 3QX,53.7443509,-0.3459382
Costa Coffee,119 High Street,,Hungerford,West Berkshire,RG17 0LX,51.4150468,-1.515337
Costa Coffee,26 High Street,,Hunstanton,Norfolk,PE36 5AF,52.9397133,0.4900637
Costa Coffee,41 High Street,,Huntingdon,Cambridgeshire,PE29 3AQ,52.32969300000001,-0.182394
Costa Coffee,E Huntingdon Retail Park,Huntingdon Road,Huntingdon,Cambridgeshire,PE29 7DZ,52.352301,-0.1826634
Costa Coffee,3 Chequers Way NEXT,,Huntingdon,Cambridgeshire,PE29 3NQ,52.3308017,-0.1813685
Costa Coffee,40 Market Place Clarendon Square Shopping Centre,,Hyde,Greater Manchester,SK14 2QU,53.4513279,-2.0776433
Costa Coffee,22 High Street,Hythe,Southampton,Hampshire,SO45 6AH,50.8699081,-1.3985898
Costa Coffee,65 High Street,,Hythe,Kent,CT21 5AJ,51.07154939999999,1.0840153
Costa Coffee,Unit 75,,Ilford,Greater London,IG1 1RS,51.5602045,0.0724103
Costa Coffee,24 Cranbrook Road,,Ilford,Greater London,IG1 4DL,51.55934269999999,0.0704616
Costa Coffee,Unit 75,,Ilford,Greater London,IG1 1RS,51.5602045,0.0724103
Costa Coffee,118 High Street,,Ilfracombe,Devon,EX34 9EY,51.2080733,-4.123475099999999
Costa Coffee,Manor Road,,Ilkeston,Derbyshire,DE7 8AG,52.9728049,-1.3077774
Costa Coffee,14 Brook Street,,Ilkley,West Yorkshire,LS29 8DE,53.925254,-1.823236
Costa Coffee,14 Inglis Street,,Inverness,Highland Council,IV1 1HN,57.47851430000001,-4.2229875
Costa Coffee,Unit 55 Eastgate,,Inverness,Highland Council,IV2 3PP,57.4797194,-4.2216609
Costa Coffee,Unit 3C Retail Park,Eastfield Way,Inverness,Highland Council,IV2 7GD,57.4816482,-4.1771322
Costa Coffee,21 Saint James' Square,,Newport,Isle of Wight,PO30 1UX,50.6994444,-1.295
Costa Coffee,23-24,High Street,Ryde,Isle of Wight,PO33 1HW,50.7284813,-1.1630223
Costa Coffee,Brading Road,,Ryde,Isle of Wight,PO33 1QS,50.7105669,-1.1438234
Costa Coffee,Anglia Parkway South,,Ipswich,Suffolk,IP1 5QP,52.0845923,1.1167008
Costa Coffee,2-4 Carr Street,,Ipswich,Suffolk,IP4 1EJ,52.0575825,1.1564562
Costa Coffee,Waterloo House,Westgate Street,Ipswich,Suffolk,IP1 3EH,52.0586091,1.1525803
Costa Coffee,11 James Bennett Avenue,,Ipswich,Suffolk,IP3 9SR,52.0332699,1.2017919
Costa Coffee,Interchange Retail Park,London Road,Pinewood,Ipswich,IP8 3TT,52.04109070000001,1.0979083
Costa Coffee,Beardmore Park,Martlesham Heath,Martlesham,Ipswich,IP5 3RX,52.0646681,1.2760772
Costa Coffee,1 - 5 Queen Street,,Ipswich,Suffolk,IP1 1SW,52.0570514,1.1531692
Costa Coffee,Rivergate Shopping Centre,,Irvine,North Ayrshire Council,KA12 8EH,55.6122131,-4.6728086
Costa Coffee,Rivergate Shopping Centre,,Irvine,North Ayrshire Council,KA12 8EH,55.6122131,-4.6728086
Costa Coffee,Unit 6 b Island Green Shopping Centre,,Wrexham,Wrexham Principal Area,LL13 7LW,53.04603890000001,-2.9977149
Costa Coffee,Unit 17,Airedale Centre,Keighley,West Yorkshire,BD21 3PX,53.8670504,-1.9075252
Costa Coffee,234 Bedford Road,Kempston,Bedford,,MK42 8PP,52.1179328,-0.4951715
Costa Coffee,Unit 13 Elephant Yard,Stricklandgate,Kendal,Cumbria,LA9 4QQ,54.3290462,-2.7473439
Costa Coffee,15 Warwick Road,,Kenilworth,Warwickshire,CV8 1HN,52.3421016,-1.5783494
Costa Coffee,111 Chamberlayne Road,,London,Greater London,NW10 3NS,51.535021,-0.219666
Costa Coffee,309 Kentish Town Road,,London,Greater London,NW5 2TJ,51.5496227,-0.1410613
Costa Coffee,Kenton Lane,,Harrow,Greater London,HA3 8SA,51.6008314,-0.3181342
Costa Coffee,Old Royal Oak Hotel,Station Street,Keswick,Cumbria,CA12 5HF,54.6005304,-3.1361246
Costa Coffee,Kettering Business Park,,Kettering,Northamptonshire,NN15 6XB,52.3761737,-0.721631
Costa Coffee,32 High Street,,Kettering,Northamptonshire,NN16 8ST,52.398853,-0.7281978000000001
Costa Coffee,"Riverside, 10 Kew Bridge Road",,Brentford,Greater London,TW8 0EB,51.4886454,-0.2879546
Costa Coffee,Unit C - Kew Retail Park,Kew,Richmond,Richmond- On- Thames,TW9 4AD,51.4784114,-0.2791033
Costa Coffee,Crossley Retail Park,Carpet Trades Way,Kidderminster,Worcestershire,DY11 6DY,52.3908939,-2.2550005
Costa Coffee,Weavers Wharf,,Kidderminster,Worcestershire,DY10 1AA,52.3874754,-2.2504836
Costa Coffee,73 Kilburn High Road,,London,Greater London,NW6 6HY,51.5375707,-0.1932691
Costa Coffee,176 Kilburn High Road,,London,Greater London,NW6 4JD,51.5408597,-0.1965314
Costa Coffee,Kilburn Station,Shoot-Up Hill,London,Greater London,NW6 7QL,51.54690739999999,-0.2043568
Costa Coffee,12 Portland Street,,Kilmarnock,East Ayrshire Council,KA1 1HZ,55.61027,-4.4967425
Costa Coffee,38 Lyon Way,,Glenrothes,Fife,KY7 5NN,56.1958776,-3.1740074
Costa Coffee,1 Liberty Square,Queen Street,Kings Hill,West Malling,ME19 4DA,51.27218269999999,0.4002021
Costa Coffee,29 Liberty Square,Kings Hill,West Malling,Kent,ME19 4AU,51.2717831,0.4032245
Costa Coffee,SU10 Vancouver Centre,,King's Lynn,Norfolk,PE30 1DT,52.7536144,0.3974605
Costa Coffee,hardwick retail park,Hardwick Road,King's Lynn,Norfolk,PE30 4NA,52.7372312,0.4147852
Costa Coffee,48 High Street,,King's Lynn,Norfolk,PE30 1BE,52.75487649999999,0.3952892
Costa Coffee,Hardwick Industrial Estate,Hansa Road,King's Lynn,Norfolk,PE30 4HX,52.7399035,0.412435
Costa Coffee,Promenade,,Kingsbridge,Devon,TQ7 1JD,50.2836094,-3.7765878
Costa Coffee,624 Kingsbury Road,,London,Greater London,NW9 9HN,51.5851593,-0.2794149
Costa Coffee,Greenhill Way,Kingsteignton,Newton Abbot,Devon,TQ12 3SB,50.5441551,-3.5971615
Costa Coffee,34 Market Place,,Kingston upon Thames,Greater London,KT1 1JH,51.4094206,-0.3059543
Costa Coffee,S11B Wood Street,,Kingston upon Thames,Greater London,KT1 1TR,51.4118312,-0.3043485
Costa Coffee,1581 Wimborne Road,Kinson,Bournemouth,Dorset,BH10 7BB,50.7688656,-1.8999884
Costa Coffee,Saint Chad's Drive,,Liverpool,Merseyside,L32 8RD,53.4818523,-2.8873507
Costa Coffee,148 High Street,,Kirkcaldy,Fife,KY1 1NQ,56.1100626,-3.1588768
Costa Coffee,Central Retail Park,Chapel Park,Kirkcaldy,Fife,KY2 6QL,56.13518029999999,-3.1985559
Costa Coffee,Central Retail Park,Chapel Park,Kirkcaldy,Fife,KY2 6QL,56.13518029999999,-3.1985559
Costa Coffee,Grimbald Crag Way,,Knaresborough,North Yorkshire,HG5 8PZ,54.0002631,-1.4446814
Costa Coffee,1648 High Street,Knowle,Solihull,West Midlands,B93 0NA,52.3884243,-1.7349894
Costa Coffee,20 Princess Street,,Knutsford,Cheshire East,WA16 6BU,53.3040619,-2.3752551
Costa Coffee,Unit 9 West Thurrock Way,West Thurrock,Grays,Thurrock,RM20 2ZQ,51.48584810000001,0.2835623
Costa Coffee,Unit 4A,West Thurrock Way,West Thurrock,Grays,RM20 1WN,51.4859863,0.2788254
Costa Coffee,Unit 249 West Thurrock Way,West Thurrock,Grays,Thurrock,RM20 2ZP,51.4889837,0.283129
Costa Coffee,75-77 High Street,,Lanark,South Lanarkshire,ML11 7LN,55.6738441,-3.7773242
Costa Coffee,2-6 Ashton Walk,St Nicolas Arcade,Saint Nicholas Arcades,Lancaster,LA1 1ND,54.0492236,-2.7996709
Costa Coffee,282 High Street,Langley,Slough,,SL3 8HG,51.5038515,-0.5424285
Costa Coffee,Unit 5,,Maidstone,Kent,ME17 3NQ,51.239663,0.5686232999999999
Costa Coffee,18 Gallowgate Street,,Largs,North Ayrshire Council,KA30 8BG,55.7948375,-4.8703031
Costa Coffee,37 Union Street,,Larkhall,South Lanarkshire,ML9 1DZ,55.740686,-3.9743238
Costa Coffee,Unit 1D Launceston Retail Park,Hurdon Road,Launceston,Cornwall,PL15 9DA,50.6270187,-4.3573352
Costa Coffee,Tavistock Road,,Launceston,Cornwall,PL15 9HG,50.6307622,-4.3541753
Costa Coffee,24 Broad Street,,Launceston,Cornwall,PL15 8AE,50.636753,-4.361014
Costa Coffee,Unit E Warwick Street,,Leamington Spa,Warwickshire,CV32 4XU,52.290873,-1.5347042
Costa Coffee,Old Warwick Road,,Leamington Spa,Warwickshire,CV31 3NT,52.2838066,-1.5428033
Costa Coffee,43 Parade,,Leamington Spa,Warwickshire,CV32 4BL,52.2915003,-1.5355326
Costa Coffee,Unit 15/16 The Swan Centre,,Leatherhead,Surrey,KT22 8AH,51.29569430000001,-0.3279436
Costa Coffee,Birstall Retail Park,Holden Ing Way,Birstall,Batley,WF17 9DT,53.7459226,-1.6428887
Costa Coffee,Leeds Road,Guiseley,Leeds,West Yorkshire,LS20 9NE,53.869267,-1.7041038
Costa Coffee,17 Merrion Way,,Leeds,West Yorkshire,LS2 8BT,53.8024403,-1.5438037
Costa Coffee,Birstall Retail Park,Holden Ing Way,Birstall,Batley,WF17 9DT,53.7459226,-1.6428887
Costa Coffee,Albion Street,,Leeds,West Yorkshire,LS1 5AY,53.7967658,-1.5446883
Costa Coffee,Dewsbury Road,,Leeds,West Yorkshire,LS11 8LU,53.7596304,-1.5742485
Costa Coffee,Dewsbury Road,,Leeds,West Yorkshire,LS11 8LU,53.7596304,-1.5742485
Costa Coffee,7 Kirkstall Valley Retail Park,Kirkstall,Leeds,West Yorkshire,LS5 3BL,53.8162172,-1.6048263
Costa Coffee,16 Lands Lane,,Leeds,West Yorkshire,LS1 6LB,53.79803640000001,-1.5434433
Costa Coffee,5A,Black Moor Road,Leeds,West Yorkshire,LS17 5NY,53.8453575,-1.5502821
Costa Coffee,Seacroft Avenue,Seacroft,Leeds,West Yorkshire,LS14 6JD,53.8222631,-1.4605768
Costa Coffee,28 Market Place,,Leek,Staffordshire,ST13 5HJ,53.1065459,-2.0255646
Costa Coffee,Unit SU1 Beaumont Leys Shopping Centre,,Leicester,Beaumont Leys,LE4 1DE,52.6657218,-1.165977
Costa Coffee,Haymarket,,Leicester,,LE1 3YR,52.6365069,-1.1328209
Costa Coffee,Costa Coffee St George's Retail Park,,Leicester,,LE1 1SG,52.6360514,-1.1209333
Costa Coffee,Unit 12 Spinning Jenny Way,,Leigh,Greater Manchester,WN7 4PG,53.4952035,-2.5174789
Costa Coffee,Parsonage Retail Park,Parsonage Way,Leigh,Greater Manchester,WN7 5SJ,53.4987935,-2.5280514
Costa Coffee,37 The Broadway,Leigh-on-Sea,Southend-on-Sea,Leigh-on-Sea,SS9 1PA,51.5416557,0.6556619
Costa Coffee,55-57,Leigh Park,Havant,Hampshire,PO9 5AH,50.86759439999999,-0.9842987
Costa Coffee,High Street,,Leighton Buzzard,Central Bedfordshire,LU7 1DN,51.9161785,-0.6635414
Costa Coffee,Grovebury Road,,Leighton Buzzard,Central Bedfordshire,LU7 4UX,51.9029159,-0.6666314999999999
Costa Coffee,Unit28 Commerce Way,,Letchworth Garden City,Hertfordshire,SG6 3DN,51.977912,-0.226921
Costa Coffee,61 High Street,,Leven,Fife,KY8 4NF,56.1950343,-2.9966084
Costa Coffee,215 High Street,,Lewes,East Sussex,BN7 2AF,50.8741672,0.0148004
Costa Coffee,Brooks Road,,Lewes,East Sussex,BN7 2BY,50.8770231,0.0148775
Costa Coffee,Unit 41 Lewisham Shopping Centre,,London,Greater London,SE13 7EP,51.46260340000001,-0.0119338
Costa Coffee,Lewisham Station,Loampit Vale,London,Greater London,SE13 7RY,51.4656303,-0.0140585
Costa Coffee,565 Lea Bridge Road,,London,Greater London,E10 7EQ,51.57518,-0.013562
Costa Coffee,Unit H Leyton Mills Retail Park,Marshall Road,London,Greater London,E10 5NH,51.55559710000001,-0.008081
Costa Coffee,841a High Road,,London,Greater London,E11 1HH,51.5694521,0.0122021
Costa Coffee,Gainsborough Road,,London,Greater London,E11 1HT,51.5714943,0.0134201
Costa Coffee,521,Stansted Road,Hounslow,Greater London,TW6 2GA,51.4713617,-0.4889892
Costa Coffee,43 Baker's Lane,,Lichfield,Staffordshire,WS13 6NG,52.68272779999999,-1.8247593
Costa Coffee,Church Street,,Lichfield,Staffordshire,WS13 6DZ,52.6847822,-1.820635
Costa Coffee,321-322 High Street,,Lincoln,Lincolnshire,LN5 7DW,53.2272768,-0.5410291
Costa Coffee,Unit 18 - Carlton Centre Outer Circle Road,,Lincoln,Lincolnshire,LN2 4UX,53.2422372,-0.5087996
Costa Coffee,158 Saint Mark's Square,,Lincoln,Lincolnshire,LN5 7EY,53.2250601,-0.5433897
Costa Coffee,Unit 2B Valentine Retail Park,Valentine Road,Lincoln,Lincolnshire,LN6 7BH,53.2215952,-0.5576131
Costa Coffee,68 High Street,,Linlithgow,West Lothian,EH49 7AQ,55.9769625,-3.599109899999999
Costa Coffee,Bubble Retail Park,Plymouth Road,Liskeard,Cornwall,PL14 3WQ,50.4497145,-4.4513343
Costa Coffee,13 Chenies Parade,Little Chalfont,Amersham,Buckinghamshire,HP7 9PH,51.6668046,-0.5639877999999999
Costa Coffee,55 High Street,,Littlehampton,West Sussex,BN17 5EJ,50.8095187,-0.5417871
Costa Coffee,Topham Drive,Aintree,Liverpool,Merseyside,L9 5AL,53.47986299999999,-2.9519662
Costa Coffee,Great Charlotte Street,,Liverpool,Merseyside,L1 1QR,53.4056465,-2.9808241
Costa Coffee,Altcar Road,,Liverpool,Merseyside,L37 8DP,53.5538619,-3.0428816
Costa Coffee,Unit 4 - Liverpool Lime Street Station,,Liverpool,Merseyside,L1 1JG,53.4079638,-2.9782421
Costa Coffee,44 Lord Street,,Liverpool,Merseyside,L2 1TD,53.4051017,-2.9879099
Costa Coffee,The Met Quarter,,Liverpool,Merseyside,L1 6DA,53.4067886,-2.9857706
Costa Coffee,18-20 Church Street,,Liverpool,Merseyside,L1 3AP,53.4050419,-2.9847835
Costa Coffee,Mather Avenue,,Liverpool,Merseyside,L18 6HF,53.38099760000001,-2.908424
Costa Coffee,24 Jennifer Avenue,,Liverpool,Merseyside,L5 5AA,53.42448419999999,-2.9794125
Costa Coffee,Unit 26,Montrose Way,Liverpool,Merseyside,L13 1FA,53.4088326,-2.9255269
Costa Coffee,Unit 2 Queen Square,,Liverpool,Merseyside,L1 1RH,53.40768740000001,-2.9835055
Costa Coffee,Almondvale Avenue,,Livingston,West Lothian,EH54 6QX,55.8830403,-3.5203295
Costa Coffee,Almondvale South,,Livingston,West Lothian,EH54 6FQ,55.881502,-3.5201072
Costa Coffee,99,Almondvale South,Livingston,West Lothian,EH54 6HR,55.8836139,-3.5151202
Costa Coffee,Unit 13 - Parc,,Llandudno,Conwy Principal Area,LL30 1PJ,53.32149150000001,-3.8235212
Costa Coffee,Debenhams,,Llanelli,Carmarthenshire,SA14 9UY,51.6759011,-4.1404764
Costa Coffee,Unit 15 Parc Pemberton Retail Park,,Llanelli,Carmarthenshire,SA14 9UZ,51.6790123,-4.1311393
Costa Coffee,Talbot Green Shopping Park,Talbot Road,Talbot Green,Pontyclun,CF72 8LW,51.5378376,-3.3803857
Costa Coffee,Locks Heath Shopping Centre,Centre Way,Park Gate,Southampton,SO31 6DX,50.8635931,-1.2750116
Costa Coffee,178 Balham High Road,,London,Greater London,SW12 9BW,51.4441392,-0.1524496
Costa Coffee,2A Goodmayes Retail Park,High Road,Romford,Greater London,RM6 4HX,51.5677455,0.1170214
Costa Coffee,507 Garratt Lane,,London,Greater London,SW18 4SW,51.4423752,-0.1882237
Costa Coffee,7-19 Amhurst Road,,London,Greater London,E8 1LL,51.5475279,-0.0561842
Costa Coffee,37 Southampton Street,,London,Greater London,WC2E 7HG,51.5107013,-0.12187
Costa Coffee,131-133 Stoke Newington High Street,,London,Greater London,N16 0PJ,51.56064749999999,-0.0741386
Costa Coffee,26 London Road,,Twickenham,Greater London,TW1 3RR,51.44775749999999,-0.3285324
Costa Coffee,275 Whitechapel Road,,London,Greater London,E1 1BY,51.5193456,-0.05975490000000001
Costa Coffee,Armada Way,,London,Greater London,E6 7ER,51.5170092,0.0804368
Costa Coffee,125 High Street Colliers Wood,,London,Greater London,SW19 2JG,51.4173965,-0.1781902
Costa Coffee,67 Long Lane,,London,Greater London,EC1A 9EJ,51.5193703,-0.0994659
Costa Coffee,7 London Road,,London,Greater London,SE23 3TW,51.4389885,-0.0543933
Costa Coffee,Western Avenue,Perivale,Greenford,Greater London,UB6 8AA,51.5321998,-0.3095621
Costa Coffee,120 Oxford Street,,London,Greater London,W1D 1LT,51.5159823,-0.1366102
Costa Coffee,Unit 23a&24 Putney High Street,,London,Greater London,SW15 1TW,51.463865,-0.216426
Costa Coffee,224 Walworth Road,,London,Greater London,SE17 1RL,51.4879231,-0.0953931
Costa Coffee,Unit 4 - Wembley Central Station,London,Wembley,Greater London,HA9 7AJ,51.5523687,-0.2963781
Costa Coffee,529 Norwood Road,,London,Greater London,SE27 9DL,51.43462599999999,-0.103648
Costa Coffee,16,Cockfosters Road,Barnet,Greater London,EN4 0DN,51.6485761,-0.1473927
Costa Coffee,5 Colney Fields Retail Park,Barnet Road,London Colney,St Albans,AL2 1BG,51.7169227,-0.2823702
Costa Coffee,4 Brocklebank Road,,London,Greater London,SE7 7FR,51.4906491,0.0232014
Costa Coffee,51 Westbourne Grove,,London,Greater London,W2 4UA,51.5153986,-0.1906657
Costa Coffee,1 Aldgate,,London,Greater London,EC3N 1RE,51.5132615,-0.07717589999999999
Costa Coffee,Beckton Triangle Retail Park,Claps Gate Lane,London,Greater London,E6 6LH,51.52246969999999,0.0710345
Costa Coffee,395 Woolwich Road,,London,Greater London,SE7 7AJ,51.4875878,0.0275572
Costa Coffee,Clapham Road,,London,Greater London,SW9 9AE,51.4723907,-0.1227583
Costa Coffee,Bridge Street,,London,Greater London,SW1A 2JR,51.5013089,-0.1249159
Costa Coffee,29 Market Place,Long Eaton,Nottingham,Derbyshire,NG10 1JL,52.89780409999999,-1.2711351
Costa Coffee,18/19 High Street,Longbridge,Birmingham,West Midlands,B31 2UQ,52.3950159,-1.984702
Costa Coffee,20 Station Road,,Longfield,Kent,DA3 7QD,51.397958,0.2998266
Costa Coffee,Unit 2 Baths Road,Longton,Stoke-on-Trent,,ST3 2JB,52.9890911,-2.1376244
Costa Coffee,Aldermoor Way,Longwell Green,Bristol,South Gloucestershire,BS30 7DA,51.4447907,-2.4971782
Costa Coffee,Tesco,London Road,Loudwater,Buckinghamshire,HP10 9RT,51.604781,-0.6926582
Costa Coffee,1 Market Place,,Loughborough,Leicestershire,LE11 3EA,52.7711024,-1.2068807
Costa Coffee,230 High Road,,Loughton,Essex,IG10 1ET,51.6483053,0.0556942
Costa Coffee,Forest Shopping Park,Langston Road,Loughton,Essex,IG10 3FT,51.6435231,0.0873864
Costa Coffee,482 Durham Road,Low Fell,Gateshead,Tyne and Wear,NE9 6LQ,54.9368987,-1.6000782
Costa Coffee,40 London Road North,,Lowestoft,Suffolk,NR32 1EP,52.47465460000001,1.7514158
Costa Coffee,North Quay Retail Park,Peto Way,Lowestoft,Suffolk,NR32 2ED,52.4775277,1.7331845
Costa Coffee,4-5 King Street,,Ludlow,Shropshire,SY8 1AH,52.367967,-2.718604
Costa Coffee,Station Road,,Ludlow,Shropshire,SY8 2PQ,52.370903,-2.7189065
Costa Coffee,Unit 55 The Mall,,Luton,,LU1 2TF,51.8790838,-0.4133531
Costa Coffee,Unit 205 St Georges Square,,Luton,,LU1 2TL,51.8804612,-0.4170004
Costa Coffee,26 Church Street,,Lutterworth,Leicestershire,LE17 4AL,52.4555946,-1.2016115
Costa Coffee,48 Broad Street,,Lyme Regis,Dorset,DT7 3QF,50.7250623,-2.9353665
Costa Coffee,91-92 High Street,,Lymington,Hampshire,SO41 9AP,50.758494,-1.541983
Costa Coffee,38-40 High Street,,Lyndhurst,Hampshire,SO43 7BG,50.8724842,-1.5752122
Costa Coffee,7&9 Park Street,,Lytham Saint Annes,Lancashire,FY8 5LU,53.7375,-2.9630556
Costa Coffee,23 Market Place,,Macclesfield,Cheshire East,SK10 1DY,53.2603319,-2.1258263
Costa Coffee,Hibel Road,,Macclesfield,Cheshire East,SK10 2AB,53.2642867,-2.1224157
Costa Coffee,5A Madford Retail Park,,Hertford,Hertfordshire,SG13 7RQ,51.797152,-0.069269
Costa Coffee,32 Westway,Maghull,Liverpool,Merseyside,L31 0DQ,53.5165432,-2.942479000000001
Costa Coffee,86 High Street,,Maidenhead,Windsor and Maidenhead,SL6 1PT,51.5228031,-0.7219747999999999
Costa Coffee,Unit 23 Fremlin Walk,,Maidstone,Kent,ME14 1QP,51.2753503,0.5199901
Costa Coffee,10 King Street,,Maidstone,Kent,ME14 1DE,51.273784,0.5237771
Costa Coffee,Sittingbourne Road,,Maidstone,Kent,ME14 3EN,51.2850135,0.5482361
Costa Coffee,Unit 3A South Aylesford Retail Park,Quarry Wood,Aylesford,Kent,ME20 7TP,51.293753,0.4700524
Costa Coffee,Grovewood Drive North,Grove Green,Weavering,Maidstone,ME14 5TQ,51.2765561,0.556148
Costa Coffee,80-82 High Street,,Maldon,Essex,CM9 5ET,51.7311203,0.6795464999999999
Costa Coffee,The Causeway,,Maldon,Essex,CM9 4DY,51.73581369999999,0.6820757
Costa Coffee,44 46 ~Wheelgate,,Malton,North Yorkshire,YO17 7HP,54.1362056,-0.7973781999999999
Costa Coffee,Manchester M90 3BB,,Manchester,Greater Manchester,M90 3BB,53.3602254,-2.2706897
Costa Coffee,Unit R4 Market Street,,Manchester,Greater Manchester,M4 3AQ,53.4835588,-2.2402869
Costa Coffee,Chester Road,Old Trafford,Stretford,Manchester,M16 0RP,53.4619601,-2.284518
Costa Coffee,21 The Fort Shopping Centre,Cheetham Hill Road,Cheetham Hill,Manchester,M8 8EP,53.497406,-2.2350869
Costa Coffee,124 Market Street,,Manchester,Greater Manchester,M1 1WA,53.4817006,-2.2384969
Costa Coffee,Oxford Road,,Manchester,Greater Manchester,M13 9BL,53.4631122,-2.2299899
Costa Coffee,Unit 6 London Road,,Manchester,Greater Manchester,M2 4PX,53.4768939,-2.2313023
Costa Coffee,Unit 1 Portland Street,,Manchester,Greater Manchester,M1 3BE,53.48061819999999,-2.2347126
Costa Coffee,12 Bridge Street,,Manchester,Greater Manchester,M3 3BZ,53.4811585,-2.2505778
Costa Coffee,Regent Crescent,Trafford Park,Stretford,Manchester,M17 8AJ,53.4668713,-2.3506845
Costa Coffee,M60,Trafford Park,Manchester,Greater Manchester,M17 8BP,53.46536889999999,-2.3487979
Costa Coffee,100,Corporation Street,Manchester,Greater Manchester,M4 3AJ,53.484217,-2.2425916
Costa Coffee,28 West Gate,,Mansfield,Nottinghamshire,NG18 1RS,53.14538959999999,-1.1974308
Costa Coffee,37 Plains Road,Mapperley,Nottingham,Nottinghamshire,NG3 5JU,52.9850752,-1.1206738
Costa Coffee,5-7 High Street,,March,Cambridgeshire,PE15 9JA,52.5494213,0.08795700000000001
Costa Coffee,55 Marchmont Street,,London,Greater London,WC1N 1AP,51.525062,-0.1253964
Costa Coffee,84-86 High Street,,Margate,Kent,CT9 1JW,51.387355,1.380663
Costa Coffee,23-25 Cheshire Street,,Market Drayton,Shropshire,TF9 1PH,52.9043569,-2.4849663
Costa Coffee,11 Market Hill,,Sudbury,Suffolk,CO10 2EA,52.0385972,0.730304
Costa Coffee,143 High Street,,Marlborough,Wiltshire,SN8 1HN,51.4216142,-1.7300637
Costa Coffee,Stockport Road,Marple,Stockport,Greater Manchester,SK6 6AY,53.3946384,-2.062496
Costa Coffee,2 South Parade,,Melton Mowbray,Leicestershire,LE13 0PU,52.7648582,-0.8872131999999999
Costa Coffee,Mere Green,Mere Green,Sutton Coldfield,West Midlands,B74 2UG,52.5864085,-1.8289503
Costa Coffee,6 - 7 New Market Walk,,Merthyr Tydfil,Merthyr Tydfil County Borough,CF47 8EL,51.7451125,-3.380067
Costa Coffee,Cyfarthfa Retail Park,Swansea Road,Merthyr Tydfil,Merthyr Tydfil County Borough,CF48 1HY,51.7495117,-3.3903017
Costa Coffee,Cyfarthfa Retail Park,Swansea Road,Merthyr Tydfil,Merthyr Tydfil County Borough,CF48 1HY,51.7495117,-3.3903017
Costa Coffee,Shepherdson Way,Middlehaven,Middlesbrough,,TS3 6RS,54.57499130000001,-1.2152598
Costa Coffee,Newton Mall,Middlesbrough,Middlesborough,Middlesbrough,TS1 1HT,54.5747218,-1.2363328
Costa Coffee,Cleveland Retail Park,Skippers Lane,Middlesbrough,,TS6 6UX,54.57026889999999,-1.1809653
Costa Coffee,Limetrees Road,Middleton,Manchester,Greater Manchester,M24 4EL,53.5483872,-2.2007668
Costa Coffee,16 North Street,,Midhurst,West Sussex,GU29 9DJ,50.9870139,-0.7388792
Costa Coffee,Unit 1&2 The Hollies,High Street,Midsomer Norton,Radstock,BA3 2DT,51.2864636,-2.4825579
Costa Coffee,44 Saint Andrew's Street,Mildenhall,Bury Saint Edmunds,Suffolk,IP28 7HB,52.342737,0.5121412
Costa Coffee,19 The Broadway,,London,Greater London,NW7 3LN,51.6142477,-0.2486957
Costa Coffee,8 Douglas Street,Milngavie,Glasgow,East Dunbartonshire Council,G62 6PB,55.9413795,-4.3180146
Costa Coffee,7 Gavin's Mill Road,Milngavie,Glasgow,East Dunbartonshire Council,G62 6NB,55.9397768,-4.3155633
Costa Coffee,Cambridge Road Industrial Estate,Milton,Cambridge,Cambridgeshire,CB4 6AZ,52.2388336,0.154616
Costa Coffee,Unit 1 Kingston Centre,Kingston,Milton Keynes,,MK10 0BA,52.0360835,-0.6877765
Costa Coffee,McConnell Drive,Wolverton,Milton Keynes,,MK12 5RJ,52.0636148,-0.8091153999999999
Costa Coffee,158 Midsummer Boulevard,,Milton Keynes,,MK9 3BA,52.044157,-0.75266
Costa Coffee,Unit C Central Retail Park,Rooksley Roundabout,Bradwell Common,Milton Keynes,MK13 8PU,52.0411647,-0.7774920000000001
Costa Coffee,500,Elder Gate,Milton Keynes,,MK9 1BB,52.0347446,-0.7740195
Costa Coffee,Sunset Walk,,Milton Keynes,,MK9 3PD,52.0424195,-0.7595756
Costa Coffee,2 Wellington Square,,Minehead,Somerset,TA24 5NH,51.2057611,-3.4791556
Costa Coffee,17 High Street,,Mold,Flintshire,CH7 1AZ,53.1673368,-3.1416727
Costa Coffee,63 Monnow Street,,Monmouth,Monmouthshire,NP25 3EW,51.8107414,-2.7181313
Costa Coffee,241-243 Monton Road,Eccles,Manchester,Greater Manchester,M30 9PS,53.49131999999999,-2.3525917
Costa Coffee,219 Marine Road Central,,Morecambe,Lancashire,LA4 4BU,54.0723616,-2.8704922
Costa Coffee,Mornington Crescent,,London,Greater London,NW1 2JA,51.5344153,-0.1387021
Costa Coffee,22-24 Bridge Street,,Morpeth,Northumberland,NE61 1NL,55.1671905,-1.6886693
Costa Coffee,19 Saint Mary's Row,Moseley,Birmingham,West Midlands,B13 8HW,52.44660349999999,-1.8874621
Costa Coffee,99 Brandon Parade South,,Motherwell,North Lanarkshire,ML1 1RB,55.78897869999999,-3.9893376
Costa Coffee,Bell Quadrant,Carfin,Motherwell,North Lanarkshire,ML1 4GN,55.806448,-3.965258899999999
Costa Coffee,Muswell Hill,,London,Greater London,N10 1DJ,51.5914639,-0.1425278
Costa Coffee,Stock Way North,Nailsea,Bristol,North Somerset,BS48 1AQ,51.43458649999999,-2.7568711
Costa Coffee,5 Somerset Square,Nailsea,Bristol,North Somerset,BS48 1RP,51.43309960000001,-2.7593677
Costa Coffee,2 Chatterton House,Church Lane,Nantwich,Cheshire East,CW5 5RQ,53.0665075,-2.5211904
Costa Coffee,291-293 Neasden Lane,,London,Greater London,NW10 1QR,51.56,-0.2522222
Costa Coffee,4 Orchard Street,,Neath,Neath Port Talbot Principle Area,SA11 1DU,51.66317230000001,-3.8042959
Costa Coffee,Neats Court Retail Park,Thomsett Way,Queenborough,Kent,ME11 5AR,51.4111531,0.7571561
Costa Coffee,17 High Street,,Neston,Cheshire West and Chester,CH64 9TZ,53.2894539,-3.0638693
Costa Coffee,17 Central Parade,New Addington,Croydon,Greater London,CR0 0JB,51.3420508,-0.0157657
Costa Coffee,13 New Bridge Street,,London,Greater London,EC4V 6AF,51.5131108,-0.1044425
Costa Coffee,King's Parade,New Brighton,Wallasey,Merseyside,CH45 2PB,53.4404484,-3.047399
Costa Coffee,37-39 Lewisham Way,,London,Greater London,SE14 6PP,51.474941,-0.0347125
Costa Coffee,123 High Street,,New Malden,Greater London,KT3 4BP,51.4001312,-0.2558116
Costa Coffee,22 Station Road,,New Milton,Hampshire,BH25 6JX,50.7548399,-1.6562484
Costa Coffee,37 High Street,,New Romney,Kent,TN28 8BW,50.9855751,0.9397236999999998
Costa Coffee,Appleton Gate,,Newark,Nottinghamshire,NG24 1LS,53.08197560000001,-0.8001083
Costa Coffee,31 Stodman Street,,Newark,Nottinghamshire,NG24 1AW,53.07607119999999,-0.8106426999999999
Costa Coffee,2 Northbrook Street,,Newbury,West Berkshire,RG14 1DJ,51.4017841,-1.3240628
Costa Coffee,44 East Street Parkway Shopping Centre,,Newbury,West Berkshire,RG14 1AY,51.4038259,-1.3236085
Costa Coffee,Newbury Retail Park,Pinchington Lane,Newbury,West Berkshire,RG14 7HU,51.3862023,-1.3179393
Costa Coffee,Pinchington Lane,,Newbury,West Berkshire,RG14 7HB,51.3829919,-1.3182522
Costa Coffee,Unit SU15 - Eldon Square Shopping Centre,,Newcastle upon Tyne,Tyne and Wear,NE1 7JD,54.9745359,-1.6163166
Costa Coffee,Unit SU15 - Eldon Square Shopping Centre,,Newcastle upon Tyne,Tyne and Wear,NE1 7JD,54.9745359,-1.6163166
Costa Coffee,19 Market Street,,Newcastle upon Tyne,Tyne and Wear,NE1 6JE,54.9727638,-1.6127371
Costa Coffee,Stamfordham Road,,Newcastle upon Tyne,Tyne and Wear,NE5 2SF,54.99062869999999,-1.6748558
Costa Coffee,Belvedere Retail Park,Belvedere Parkway,Newcastle upon Tyne,Tyne and Wear,NE3 2PA,55.0121125,-1.666717
Costa Coffee,78-84 Northumberland Street,,Newcastle upon Tyne,Tyne and Wear,NE1 7DF,54.9764119,-1.6133206
Costa Coffee,36,Gallowgate,Newcastle upon Tyne,Tyne and Wear,NE1 4TD,54.9738924,-1.6196908
Costa Coffee,Unit 26 Castle Walk Shopping Centre,Newcastle-under-Lyme,Newcastle,Staffordshire,ST5 1AN,53.011407,-2.2253212
Costa Coffee,The Rookery,,Newmarket,Suffolk,CB8 8EQ,52.2451185,0.4059151
